{"type":"FeatureCollection","features":[{"type":"Feature","geometry":{"type":"Point","coordinates":[72.9798203,19.1878495]},"properties":{"name":"Chendani Koliwada (CIDCO)","position":0,"ref":"3008"}},{"type":"Feature","geometry":{"type":"Point","coordinates":[72.9805373,19.1915526]},"properties":{"name":"Dadoji Konddev Stadium","position":1,"ref":"3009"}},{"type":"Feature","geometry":{"type":"Point","coordinates":[72.9831192,19.1971803]},"properties":{"name":"Kanhaji Agrh Chowk","position":2,"ref":"3010"}},{"type":"Feature","geometry":{"type":"Point","coordinates":[72.9854446,19.2027537]},"properties":{"name":"Rabodi","position":3,"ref":"3011"}},{"type":"Feature","geometry":{"type":"Point","coordinates":[72.9920346,19.2062078]},"properties":{"name":"Saket Complex","position":4,"ref":"3012"}},{"type":"Feature","geometry":{"type":"Point","coordinates":[72.9908142,19.2165346]},"properties":{"name":"Balkum Pada No 3","position":5,"ref":"3013"}},{"type":"Feature","geometry":{"type":"Point","coordinates":[72.9898356,19.2200382]},"properties":{"name":"Balkum Pada No 2","position":6,"ref":"3014"}},{"type":"Feature","geometry":{"type":"Point","coordinates":[72.9895826,19.2214947]},"properties":{"name":"Balkum Naka","position":7,"ref":"3015"}},{"type":"Feature","geometry":{"type":"Point","coordinates":[72.9998902,19.2276878]},"properties":{"name":"Datta Mandir","position":8,"ref":"3016"}},{"type":"Feature","geometry":{"type":"Point","coordinates":[73.0086304,19.2323802]},"properties":{"name":"Chamunda","position":9,"ref":"3017"}},{"type":"Feature","geometry":{"type":"Point","coordinates":[73.0130305,19.2350598]},"properties":{"name":"Kasheli Toll Naka","position":10,"ref":"3018"}},{"type":"Feature","geometry":{"type":"Point","coordinates":[73.0147329,19.2362347]},"properties":{"name":"Kasheli","position":11,"ref":"3019"}},{"type":"Feature","geometry":{"type":"Point","coordinates":[73.0160217,19.2388295]},"properties":{"name":"Durgesh Complex","position":12,"ref":"3020"}},{"type":"Feature","geometry":{"type":"Point","coordinates":[73.0167002,19.2415894]},"properties":{"name":"Hanuman Complex","position":13,"ref":"3021"}},{"type":"Feature","geometry":{"type":"Point","coordinates":[73.0173509,19.2441567]},"properties":{"name":"Durgesh Park","position":14,"ref":"3022"}},{"type":"Feature","geometry":{"type":"Point","coordinates":[73.0177528,19.2481512]},"properties":{"name":"Kalher","position":15,"ref":"3023"}},{"type":"Feature","geometry":{"type":"Point","coordinates":[73.0180152,19.2513182]},"properties":{"name":"Kalher Pipe Line","position":16,"ref":"3024"}},{"type":"Feature","geometry":{"type":"Point","coordinates":[73.0211673,19.252695]},"properties":{"name":"Kopar","position":17,"ref":"3025"}},{"type":"Feature","geometry":{"type":"Point","coordinates":[73.0264118,19.258259]},"properties":{"name":"Purna","position":18,"ref":"3026"}},{"type":"Feature","geometry":{"type":"Point","coordinates":[72.9828981,19.1949909]},"properties":{"name":"Mahagiri Koliwada","position":19,"ref":"3027"}}]}