{"type":"FeatureCollection","features":[{"type":"Feature","geometry":{"type":"Point","coordinates":[72.9605652,19.1975371]},"properties":{"name":"Kajuwadi","position":0,"ref":"2301"}},{"type":"Feature","geometry":{"type":"Point","coordinates":[72.9628977,19.1991462]},"properties":{"name":"Nitin Company","position":1,"ref":"2302"}},{"type":"Feature","geometry":{"type":"Point","coordinates":[72.9644356,19.1958959]},"properties":{"name":"Gurukul Society","position":2,"ref":"2303"}},{"type":"Feature","geometry":{"type":"Point","coordinates":[72.9667844,19.1947594]},"properties":{"name":"Parmarth Niketan","position":3,"ref":"1799"}},{"type":"Feature","geometry":{"type":"Point","coordinates":[72.967044,19.1936103]},"properties":{"name":"Pradeep Society","position":4,"ref":"2304"}},{"type":"Feature","geometry":{"type":"Point","coordinates":[72.968389,19.1927325]},"properties":{"name":"Aradhana Cinema","position":5,"ref":"2305"}},{"type":"Feature","geometry":{"type":"Point","coordinates":[72.9679558,19.1912484]},"properties":{"name":"Hari Niwas","position":6,"ref":"2306"}},{"type":"Feature","geometry":{"type":"Point","coordinates":[72.9686445,19.1873699]},"properties":{"name":"Ice Factory","position":7,"ref":"2307"}},{"type":"Feature","geometry":{"type":"Point","coordinates":[72.9717317,19.1876765]},"properties":{"name":"A.K. Joshi Vidyalaya","position":8,"ref":"2308"}},{"type":"Feature","geometry":{"type":"Point","coordinates":[72.9746775,19.1887818]},"properties":{"name":"Gaondevi","position":9,"ref":"2309"}},{"type":"Feature","geometry":{"type":"Point","coordinates":[72.976106,19.186713]},"properties":{"name":"Thane Station West SATIS","position":10,"ref":"2310"}}]}