{"type":"FeatureCollection","features":[{"type":"Feature","geometry":{"type":"Point","coordinates":[72.8575557,19.229678]},"properties":{"name":"Borivali Station (East)","position":0,"ref":"2550"}},{"type":"Feature","geometry":{"type":"Point","coordinates":[72.8625051,19.2313587]},"properties":{"name":"Omkareshwar Mandir","position":1,"ref":"2551"}},{"type":"Feature","geometry":{"type":"Point","coordinates":[72.8644934,19.2246222]},"properties":{"name":"Devipada","position":2,"ref":"2552"}},{"type":"Feature","geometry":{"type":"Point","coordinates":[72.8669956,19.2173648]},"properties":{"name":"Magathane Depot / Magathane Telephone Exchange","position":3,"ref":"2553"}},{"type":"Feature","geometry":{"type":"Point","coordinates":[72.8686428,19.2115636]},"properties":{"name":"Dattani Park","position":4,"ref":"2554"}},{"type":"Feature","geometry":{"type":"Point","coordinates":[72.8611173,19.1991328]},"properties":{"name":"Bandongri","position":5,"ref":"2555"}},{"type":"Feature","geometry":{"type":"Point","coordinates":[72.8585293,19.1880237]},"properties":{"name":"Dindoshi Police Station","position":6,"ref":"2556"}},{"type":"Feature","geometry":{"type":"Point","coordinates":[72.858521,19.1847257]},"properties":{"name":"Kurar Village","position":7,"ref":"2557"}},{"type":"Feature","geometry":{"type":"Point","coordinates":[72.8586909,19.1793917]},"properties":{"name":"Pathan Wadi","position":8,"ref":"2558"}},{"type":"Feature","geometry":{"type":"Point","coordinates":[72.8592514,19.1706406]},"properties":{"name":"Virwani Estate /Sarvoday Nagar","position":9,"ref":"2559"}},{"type":"Feature","geometry":{"type":"Point","coordinates":[72.8588838,19.1670834]},"properties":{"name":"Goregaon Check Naka","position":10,"ref":"2560"}},{"type":"Feature","geometry":{"type":"Point","coordinates":[72.8572354,19.1545332]},"properties":{"name":"Vanrai / Mhada Colony","position":11,"ref":"2561"}},{"type":"Feature","geometry":{"type":"Point","coordinates":[72.8553088,19.1345304]},"properties":{"name":"Ismail Yusuf College","position":12,"ref":"2562"}},{"type":"Feature","geometry":{"type":"Point","coordinates":[72.8554895,19.1296125]},"properties":{"name":"Shankarwadi","position":13,"ref":"2563"}},{"type":"Feature","geometry":{"type":"Point","coordinates":[72.8561814,19.1211263]},"properties":{"name":"Gundavali","position":14,"ref":"2564"}},{"type":"Feature","geometry":{"type":"Point","coordinates":[72.8546346,19.1126253]},"properties":{"name":"Bisleri Signal Andheri Station Highway","position":15,"ref":"2565"}},{"type":"Feature","geometry":{"type":"Point","coordinates":[72.8540603,19.1053657]},"properties":{"name":"Hanuman Road","position":16,"ref":"2566"}},{"type":"Feature","geometry":{"type":"Point","coordinates":[72.8543848,19.0998096]},"properties":{"name":"Sambhaji Nagar","position":17,"ref":"2567"}},{"type":"Feature","geometry":{"type":"Point","coordinates":[72.8464878,19.0918642]},"properties":{"name":"Vile Parle Sub Way","position":18,"ref":"2568"}},{"type":"Feature","geometry":{"type":"Point","coordinates":[72.8441532,19.0904685]},"properties":{"name":"Milan Sub Way","position":19,"ref":"2569"}},{"type":"Feature","geometry":{"type":"Point","coordinates":[72.8469125,19.0682136]},"properties":{"name":"Teachers Colony","position":20,"ref":"2570"}},{"type":"Feature","geometry":{"type":"Point","coordinates":[72.8470218,19.0534919]},"properties":{"name":"Kalanagar Highway","position":21,"ref":"2571"}},{"type":"Feature","geometry":{"type":"Point","coordinates":[72.851061,19.055448]},"properties":{"name":"M.M.R.T","position":22,"ref":"2572"}},{"type":"Feature","geometry":{"type":"Point","coordinates":[72.854229,19.057579]},"properties":{"name":"BKC","position":23,"ref":"2573"}}]}