{"type":"FeatureCollection","features":[{"type":"Feature","geometry":{"type":"Point","coordinates":[72.9808434,19.2327246]},"properties":{"name":"Manorama Nagar","position":0,"ref":"487"}},{"type":"Feature","geometry":{"type":"Point","coordinates":[72.9801563,19.2298898]},"properties":{"name":"Aban Park","position":1,"ref":"488"}},{"type":"Feature","geometry":{"type":"Point","coordinates":[72.9805568,19.227135]},"properties":{"name":"Dhokali Naka","position":2,"ref":"489"}},{"type":"Feature","geometry":{"type":"Point","coordinates":[72.980858,19.225551]},"properties":{"name":"Shruti Park","position":3,"ref":"490"}},{"type":"Feature","geometry":{"type":"Point","coordinates":[72.9824172,19.2222345]},"properties":{"name":"Highland Park","position":4,"ref":"491"}},{"type":"Feature","geometry":{"type":"Point","coordinates":[72.9840456,19.2189088]},"properties":{"name":"Yashaswi Nagar Pipeline","position":5,"ref":"492"}},{"type":"Feature","geometry":{"type":"Point","coordinates":[72.9835628,19.2182988]},"properties":{"name":"Yashaswi Nagar","position":6,"ref":"493"}},{"type":"Feature","geometry":{"type":"Point","coordinates":[72.9811096,19.2177201]},"properties":{"name":"Chhabhaiya Park","position":7,"ref":"494"}},{"type":"Feature","geometry":{"type":"Point","coordinates":[72.9798881,19.217526]},"properties":{"name":"Kapurbawdi","position":8,"ref":"495"}},{"type":"Feature","geometry":{"type":"Point","coordinates":[72.978138,19.2157389]},"properties":{"name":"Ashapura Mandir","position":9,"ref":"496"}},{"type":"Feature","geometry":{"type":"Point","coordinates":[72.9779962,19.2143169]},"properties":{"name":"Majiwada Naka","position":10,"ref":"497"}},{"type":"Feature","geometry":{"type":"Point","coordinates":[72.9772715,19.2105722]},"properties":{"name":"Muktai Nagar","position":11,"ref":"498"}},{"type":"Feature","geometry":{"type":"Point","coordinates":[72.977128,19.2088856]},"properties":{"name":"Gokul Nagar","position":12,"ref":"499"}},{"type":"Feature","geometry":{"type":"Point","coordinates":[72.9774956,19.2071097]},"properties":{"name":"Ambika Yoga Kutir","position":13,"ref":"500"}},{"type":"Feature","geometry":{"type":"Point","coordinates":[72.9773084,19.204123]},"properties":{"name":"Kolbad","position":14,"ref":"501"}},{"type":"Feature","geometry":{"type":"Point","coordinates":[72.9763392,19.2026103]},"properties":{"name":"Bramhala Talav / Manorpada","position":15,"ref":"502"}},{"type":"Feature","geometry":{"type":"Point","coordinates":[72.9732762,19.200609]},"properties":{"name":"Khopat S.T. Workshop","position":16,"ref":"503"}},{"type":"Feature","geometry":{"type":"Point","coordinates":[72.9718268,19.1984369]},"properties":{"name":"Makhamali Talav","position":17,"ref":"504"}},{"type":"Feature","geometry":{"type":"Point","coordinates":[72.9705389,19.1941961]},"properties":{"name":"Vandana Cinema","position":18,"ref":"505"}},{"type":"Feature","geometry":{"type":"Point","coordinates":[72.9679761,19.1912478]},"properties":{"name":"Hari Niwas","position":19,"ref":"506"}},{"type":"Feature","geometry":{"type":"Point","coordinates":[72.9686499,19.1873696]},"properties":{"name":"Ice Factory","position":20,"ref":"507"}},{"type":"Feature","geometry":{"type":"Point","coordinates":[72.971737,19.1876598]},"properties":{"name":"A.K. Joshi Vidyalaya","position":21,"ref":"508"}},{"type":"Feature","geometry":{"type":"Point","coordinates":[72.9746865,19.1887794]},"properties":{"name":"Gaondevi","position":22,"ref":"509"}},{"type":"Feature","geometry":{"type":"Point","coordinates":[72.976106,19.186713]},"properties":{"name":"Thane Station West SATIS","position":23,"ref":"510"}}]}