{"type":"FeatureCollection","features":[{"type":"Feature","geometry":{"type":"Point","coordinates":[73.0165693,19.2100284]},"properties":{"name":"Reti Bunder Circle","position":0,"ref":"2664"}},{"type":"Feature","geometry":{"type":"Point","coordinates":[73.0132486,19.2090455]},"properties":{"name":"Sainath Nagar","position":1,"ref":"2665"}},{"type":"Feature","geometry":{"type":"Point","coordinates":[73.0114712,19.2076782]},"properties":{"name":"Subhash Tower","position":2,"ref":"2666"}},{"type":"Feature","geometry":{"type":"Point","coordinates":[73.00974,19.2064771]},"properties":{"name":"Vastu Anand","position":3,"ref":"2667"}},{"type":"Feature","geometry":{"type":"Point","coordinates":[73.00857,19.2057264]},"properties":{"name":"Parsik Nagar","position":4,"ref":"2668"}},{"type":"Feature","geometry":{"type":"Point","coordinates":[73.0073343,19.2049847]},"properties":{"name":"Raj Park","position":5,"ref":"2669"}},{"type":"Feature","geometry":{"type":"Point","coordinates":[73.0058755,19.2034801]},"properties":{"name":"Prem Nagar","position":6,"ref":"2670"}},{"type":"Feature","geometry":{"type":"Point","coordinates":[73.0016864,19.2018326]},"properties":{"name":"Kharegaon Naka","position":7,"ref":"2671"}},{"type":"Feature","geometry":{"type":"Point","coordinates":[72.9990837,19.2004966]},"properties":{"name":"Datta Wadi","position":8,"ref":"2672"}},{"type":"Feature","geometry":{"type":"Point","coordinates":[72.995352,19.1986771]},"properties":{"name":"Sukur Park","position":9,"ref":"2673"}},{"type":"Feature","geometry":{"type":"Point","coordinates":[72.9935873,19.1977866]},"properties":{"name":"Sahyadri Society","position":10,"ref":"2674"}},{"type":"Feature","geometry":{"type":"Point","coordinates":[72.99172,19.1970023]},"properties":{"name":"Manisha Nagar","position":11,"ref":"2675"}},{"type":"Feature","geometry":{"type":"Point","coordinates":[72.987394,19.1958369]},"properties":{"name":"Kalwa Naka","position":12,"ref":"2676"}},{"type":"Feature","geometry":{"type":"Point","coordinates":[72.9831186,19.1971908]},"properties":{"name":"Kanhaji Agrh Chowk","position":13,"ref":"2677"}},{"type":"Feature","geometry":{"type":"Point","coordinates":[72.9827401,19.1941138]},"properties":{"name":"Mahagiri Koliwada","position":14,"ref":"2678"}},{"type":"Feature","geometry":{"type":"Point","coordinates":[72.9807927,19.1919447]},"properties":{"name":"Dadoji Konddev Stadium","position":15,"ref":"2679"}},{"type":"Feature","geometry":{"type":"Point","coordinates":[72.9798204,19.1878661]},"properties":{"name":"Chendani Koliwada","position":16,"ref":"2680"}}]}