{"type":"FeatureCollection","features":[{"type":"Feature","geometry":{"type":"Point","coordinates":[72.976671,19.185083]},"properties":{"name":"Thane Station (East) Kopri","position":0,"ref":"1097"}},{"type":"Feature","geometry":{"type":"Point","coordinates":[72.972404,19.184527]},"properties":{"name":"Gaondevi","position":1,"ref":"1098"}},{"type":"Feature","geometry":{"type":"Point","coordinates":[72.970706,19.182417]},"properties":{"name":"Siddarth Nagar Shashkiya Niwas","position":2,"ref":"1099"}},{"type":"Feature","geometry":{"type":"Point","coordinates":[72.967731,19.181612]},"properties":{"name":"Swami Vivekanand Chowk","position":3,"ref":"1100"}},{"type":"Feature","geometry":{"type":"Point","coordinates":[72.964733,19.184538]},"properties":{"name":"Gynan Sadhana College","position":4,"ref":"1101"}},{"type":"Feature","geometry":{"type":"Point","coordinates":[72.963416,19.189283]},"properties":{"name":"Teen Hath Naka","position":5,"ref":"1102"}},{"type":"Feature","geometry":{"type":"Point","coordinates":[72.963161,19.189346]},"properties":{"name":"Highway Darshan Society","position":6,"ref":"1103"}},{"type":"Feature","geometry":{"type":"Point","coordinates":[72.962342,19.195648]},"properties":{"name":"Louiswadi","position":7,"ref":"1104"}},{"type":"Feature","geometry":{"type":"Point","coordinates":[72.962906,19.199147]},"properties":{"name":"Nitin Company","position":8,"ref":"1105"}},{"type":"Feature","geometry":{"type":"Point","coordinates":[72.967939,19.203942]},"properties":{"name":"Cadbury Junction","position":9,"ref":"1106"}},{"type":"Feature","geometry":{"type":"Point","coordinates":[72.973105,19.208952]},"properties":{"name":"Jupiter Hospital","position":10,"ref":"1107"}},{"type":"Feature","geometry":{"type":"Point","coordinates":[72.977005,19.212952]},"properties":{"name":"Hardas Nagar","position":11,"ref":"1108"}},{"type":"Feature","geometry":{"type":"Point","coordinates":[72.977329,19.214469]},"properties":{"name":"Majiwada Naka","position":12,"ref":"1109"}},{"type":"Feature","geometry":{"type":"Point","coordinates":[72.977807,19.216249]},"properties":{"name":"Ashapura Mandir","position":13,"ref":"1110"}},{"type":"Feature","geometry":{"type":"Point","coordinates":[72.977518,19.221092]},"properties":{"name":"Kapurbawdi","position":14,"ref":"1111"}},{"type":"Feature","geometry":{"type":"Point","coordinates":[72.977355,19.223444]},"properties":{"name":"Tattvagyan Vidyapeeth","position":15,"ref":"1112"}},{"type":"Feature","geometry":{"type":"Point","coordinates":[72.97659,19.229835]},"properties":{"name":"Lockim Company","position":16,"ref":"1113"}},{"type":"Feature","geometry":{"type":"Point","coordinates":[72.975927,19.234999]},"properties":{"name":"Manpada","position":17,"ref":"1114"}},{"type":"Feature","geometry":{"type":"Point","coordinates":[72.975482,19.239137]},"properties":{"name":"Mulla Bagh","position":18,"ref":"1115"}},{"type":"Feature","geometry":{"type":"Point","coordinates":[72.975519,19.240986]},"properties":{"name":"Azad Nagar Naka","position":19,"ref":"1116"}},{"type":"Feature","geometry":{"type":"Point","coordinates":[72.975323,19.247343]},"properties":{"name":"Patli Pada","position":20,"ref":"1117"}},{"type":"Feature","geometry":{"type":"Point","coordinates":[72.973427,19.250518]},"properties":{"name":"Dongri Pada","position":21,"ref":"1118"}},{"type":"Feature","geometry":{"type":"Point","coordinates":[72.972285,19.252734]},"properties":{"name":"Wagh Bill Naka","position":22,"ref":"1119"}},{"type":"Feature","geometry":{"type":"Point","coordinates":[72.970537,19.2571]},"properties":{"name":"Panchamrit","position":23,"ref":"1120"}},{"type":"Feature","geometry":{"type":"Point","coordinates":[72.969181,19.26043]},"properties":{"name":"Batata Company","position":24,"ref":"1121"}},{"type":"Feature","geometry":{"type":"Point","coordinates":[72.968262,19.262827]},"properties":{"name":"Muchhala College","position":25,"ref":"1122"}},{"type":"Feature","geometry":{"type":"Point","coordinates":[72.967534,19.264563]},"properties":{"name":"Anand Nagar","position":26,"ref":"1123"}},{"type":"Feature","geometry":{"type":"Point","coordinates":[72.966629,19.266951]},"properties":{"name":"Sainath Nagar","position":27,"ref":"1124"}},{"type":"Feature","geometry":{"type":"Point","coordinates":[72.965388,19.26939]},"properties":{"name":"Kasarvadavali Naka","position":28,"ref":"1125"}},{"type":"Feature","geometry":{"type":"Point","coordinates":[72.963061,19.272123]},"properties":{"name":"Vedant Hospital Garib Nagar","position":29,"ref":"1126"}},{"type":"Feature","geometry":{"type":"Point","coordinates":[72.96033,19.274204]},"properties":{"name":"Ovala","position":30,"ref":"1127"}},{"type":"Feature","geometry":{"type":"Point","coordinates":[72.958882,19.275768]},"properties":{"name":"Shri Ram Hospital","position":31,"ref":"1128"}},{"type":"Feature","geometry":{"type":"Point","coordinates":[72.957563,19.277371]},"properties":{"name":"Trimurti School","position":32,"ref":"1129"}},{"type":"Feature","geometry":{"type":"Point","coordinates":[72.95506,19.281024]},"properties":{"name":"Poshmata Mandir","position":33,"ref":"1130"}},{"type":"Feature","geometry":{"type":"Point","coordinates":[72.951899,19.283571]},"properties":{"name":"Bhaindar Pada","position":34,"ref":"1131"}},{"type":"Feature","geometry":{"type":"Point","coordinates":[72.947311,19.284241]},"properties":{"name":"Imperial Sqaure","position":35,"ref":"1132"}},{"type":"Feature","geometry":{"type":"Point","coordinates":[72.941204,19.285144]},"properties":{"name":"Jagannath Mahadev Temple","position":36,"ref":"1133"}},{"type":"Feature","geometry":{"type":"Point","coordinates":[72.936293,19.285105]},"properties":{"name":"Gaimukh","position":37,"ref":"1134"}},{"type":"Feature","geometry":{"type":"Point","coordinates":[72.922575,19.278768]},"properties":{"name":"Kajupada","position":38,"ref":"1135"}},{"type":"Feature","geometry":{"type":"Point","coordinates":[72.91644,19.27577]},"properties":{"name":"Chena Bridge","position":39,"ref":"1136"}},{"type":"Feature","geometry":{"type":"Point","coordinates":[72.906591,19.28253]},"properties":{"name":"Shashkiy Vishram Gruh Versova, Ghodbunder","position":40,"ref":"1137"}},{"type":"Feature","geometry":{"type":"Point","coordinates":[72.904488,19.284958]},"properties":{"name":"Fountain Hotel","position":41,"ref":"1138"}},{"type":"Feature","geometry":{"type":"Point","coordinates":[72.899275,19.285323]},"properties":{"name":"Piyushpani Parshvanath Jain Temple","position":42,"ref":"1139"}},{"type":"Feature","geometry":{"type":"Point","coordinates":[72.893254,19.286829]},"properties":{"name":"Ghodbunder Village","position":43,"ref":"1140"}},{"type":"Feature","geometry":{"type":"Point","coordinates":[72.889041,19.276148]},"properties":{"name":"Western Hotel","position":44,"ref":"1141"}},{"type":"Feature","geometry":{"type":"Point","coordinates":[72.886,19.27415]},"properties":{"name":"Kashi Village","position":45,"ref":"1142"}},{"type":"Feature","geometry":{"type":"Point","coordinates":[72.882288,19.271511]},"properties":{"name":"Kashimira","position":46,"ref":"1143"}},{"type":"Feature","geometry":{"type":"Point","coordinates":[72.879061,19.269292]},"properties":{"name":"Amar Palace","position":47,"ref":"1144"}},{"type":"Feature","geometry":{"type":"Point","coordinates":[72.875771,19.265143]},"properties":{"name":"Mahavishnu Mandir Samrat","position":48,"ref":"1145"}},{"type":"Feature","geometry":{"type":"Point","coordinates":[72.873773,19.262148]},"properties":{"name":"Golden Chemicals","position":49,"ref":"1146"}},{"type":"Feature","geometry":{"type":"Point","coordinates":[72.87186,19.257783]},"properties":{"name":"Dahisar Toll Naka","position":50,"ref":"1147"}},{"type":"Feature","geometry":{"type":"Point","coordinates":[72.867952,19.251793]},"properties":{"name":"Raval Pada","position":51,"ref":"1148"}},{"type":"Feature","geometry":{"type":"Point","coordinates":[72.864763,19.244507]},"properties":{"name":"Ganesh Nagar / Gokul Anand Hotel Borivali East","position":52,"ref":"1149"}},{"type":"Feature","geometry":{"type":"Point","coordinates":[72.863664,19.237669]},"properties":{"name":"Nency Colony","position":53,"ref":"1150"}},{"type":"Feature","geometry":{"type":"Point","coordinates":[72.863136,19.230497]},"properties":{"name":"National Park","position":54,"ref":"1151"}},{"type":"Feature","geometry":{"type":"Point","coordinates":[72.862856,19.230562]},"properties":{"name":"Omkareshwar Mandir","position":55,"ref":"1152"}},{"type":"Feature","geometry":{"type":"Point","coordinates":[72.859464,19.231475]},"properties":{"name":"Borivali Station (East)","position":56,"ref":"1043"}}]}