{"type":"FeatureCollection","features":[{"type":"Feature","geometry":{"type":"Point","coordinates":[72.976106,19.186713]},"properties":{"name":"Thane Station West SATIS","position":0,"ref":"2143"}},{"type":"Feature","geometry":{"type":"Point","coordinates":[72.9767117,19.1937988]},"properties":{"name":"Talao Pali / Jambhali Naka","position":1,"ref":"2144"}},{"type":"Feature","geometry":{"type":"Point","coordinates":[72.9772442,19.1971033]},"properties":{"name":"Tembhi Naka / Court Naka","position":2,"ref":"2145"}},{"type":"Feature","geometry":{"type":"Point","coordinates":[72.9773807,19.1991859]},"properties":{"name":"Civil Hospital","position":3,"ref":"2146"}},{"type":"Feature","geometry":{"type":"Point","coordinates":[72.977753,19.2017996]},"properties":{"name":"School No 7","position":4,"ref":"2147"}},{"type":"Feature","geometry":{"type":"Point","coordinates":[72.9780117,19.2029432]},"properties":{"name":"Uthalsar","position":5,"ref":"2148"}},{"type":"Feature","geometry":{"type":"Point","coordinates":[72.977186,19.2073087]},"properties":{"name":"Castel Mil","position":6,"ref":"2149"}},{"type":"Feature","geometry":{"type":"Point","coordinates":[72.9770195,19.209353]},"properties":{"name":"Gokul Nagar","position":7,"ref":"2150"}},{"type":"Feature","geometry":{"type":"Point","coordinates":[72.9771207,19.2108317]},"properties":{"name":"Muktai Nagar","position":8,"ref":"2151"}},{"type":"Feature","geometry":{"type":"Point","coordinates":[72.9763113,19.21451]},"properties":{"name":"Oswal Park","position":9,"ref":"2152"}},{"type":"Feature","geometry":{"type":"Point","coordinates":[72.9740075,19.2162665]},"properties":{"name":"Subhash Nagar","position":10,"ref":"2153"}},{"type":"Feature","geometry":{"type":"Point","coordinates":[72.9718854,19.2169653]},"properties":{"name":"Voltas Gate","position":11,"ref":"2154"}},{"type":"Feature","geometry":{"type":"Point","coordinates":[72.9703677,19.2180513]},"properties":{"name":"Gandhi Nagar","position":12,"ref":"2155"}},{"type":"Feature","geometry":{"type":"Point","coordinates":[72.9701459,19.2202499]},"properties":{"name":"Jawahar Nagar","position":13,"ref":"2156"}},{"type":"Feature","geometry":{"type":"Point","coordinates":[72.9698045,19.2218618]},"properties":{"name":"Vasant Vihar","position":14,"ref":"2157"}},{"type":"Feature","geometry":{"type":"Point","coordinates":[72.9719034,19.2225821]},"properties":{"name":"Dharmveer Ngar / Happy Valley","position":15,"ref":"2158"}},{"type":"Feature","geometry":{"type":"Point","coordinates":[72.973132,19.222475]},"properties":{"name":"Tulsidham","position":16,"ref":"2159"}},{"type":"Feature","geometry":{"type":"Point","coordinates":[72.9739778,19.226167]},"properties":{"name":"Hyde Park","position":17,"ref":"2160"}}]}