{"type":"FeatureCollection","features":[{"type":"Feature","geometry":{"type":"Point","coordinates":[72.9553781,19.1877044]},"properties":{"name":"Automatic Company","position":0,"ref":"3750"}},{"type":"Feature","geometry":{"type":"Point","coordinates":[72.95436667,19.18424667]},"properties":{"name":"Mulund Check Naka","position":1,"ref":"3751"}},{"type":"Feature","geometry":{"type":"Point","coordinates":[72.9502474,19.1833408]},"properties":{"name":"Santoshi Mata Mandir","position":2,"ref":"3752"}},{"type":"Feature","geometry":{"type":"Point","coordinates":[72.9457037,19.1796169]},"properties":{"name":"Kamgar Hospital Mulund","position":3,"ref":"3753"}},{"type":"Feature","geometry":{"type":"Point","coordinates":[72.948965,19.178868]},"properties":{"name":"Dnyan Sarita College","position":4,"ref":"1401"}},{"type":"Feature","geometry":{"type":"Point","coordinates":[72.9527889,19.1754935]},"properties":{"name":"Pach Rasta Devidayal Road","position":5,"ref":"3754"}},{"type":"Feature","geometry":{"type":"Point","coordinates":[72.9580252,19.1738379]},"properties":{"name":"Mulund Station (W)","position":6,"ref":"3755"}}]}