{"type":"FeatureCollection","features":[{"type":"Feature","geometry":{"type":"Point","coordinates":[72.9652568,19.2258343]},"properties":{"name":"Siddhachal Society","position":0,"ref":"756"}},{"type":"Feature","geometry":{"type":"Point","coordinates":[72.9648562,19.2227022]},"properties":{"name":"HDFC Bank Siddhachal","position":1,"ref":"757"}},{"type":"Feature","geometry":{"type":"Point","coordinates":[72.96765,19.22104]},"properties":{"name":"Vasant Vihar School","position":2,"ref":"758"}},{"type":"Feature","geometry":{"type":"Point","coordinates":[72.96745,19.22087]},"properties":{"name":"Ashiyan Cable","position":3,"ref":"759"}},{"type":"Feature","geometry":{"type":"Point","coordinates":[72.9605239,19.2209627]},"properties":{"name":"Devidayal Company","position":4,"ref":"760"}},{"type":"Feature","geometry":{"type":"Point","coordinates":[72.9602156,19.2202179]},"properties":{"name":"Lakshmi Narayan Residency","position":5,"ref":"761"}},{"type":"Feature","geometry":{"type":"Point","coordinates":[72.9587408,19.2166971]},"properties":{"name":"Cosmos Paradise","position":6,"ref":"762"}},{"type":"Feature","geometry":{"type":"Point","coordinates":[72.958329,19.2149229]},"properties":{"name":"Devdaya Nagar","position":7,"ref":"763"}},{"type":"Feature","geometry":{"type":"Point","coordinates":[72.9591613,19.2137417]},"properties":{"name":"S T Juna Thamba / Shastri Nagar","position":8,"ref":"764"}},{"type":"Feature","geometry":{"type":"Point","coordinates":[72.9602456,19.212284]},"properties":{"name":"Building No 3","position":9,"ref":"765"}},{"type":"Feature","geometry":{"type":"Point","coordinates":[72.9616222,19.2106025]},"properties":{"name":"Vartak Nagar Naka","position":10,"ref":"766"}},{"type":"Feature","geometry":{"type":"Point","coordinates":[72.9651813,19.2074165]},"properties":{"name":"J K Gram","position":11,"ref":"767"}},{"type":"Feature","geometry":{"type":"Point","coordinates":[72.9671784,19.2055936]},"properties":{"name":"Cadbury Company","position":12,"ref":"768"}},{"type":"Feature","geometry":{"type":"Point","coordinates":[72.9687155,19.204048]},"properties":{"name":"Cadbury Juction","position":13,"ref":"769"}},{"type":"Feature","geometry":{"type":"Point","coordinates":[72.9634146,19.1988446]},"properties":{"name":"Nitin Company","position":14,"ref":"770"}},{"type":"Feature","geometry":{"type":"Point","coordinates":[72.9626327,19.1956104]},"properties":{"name":"Louiswadi","position":15,"ref":"771"}},{"type":"Feature","geometry":{"type":"Point","coordinates":[72.9637055,19.1886402]},"properties":{"name":"Highway Darshan Society","position":16,"ref":"772"}},{"type":"Feature","geometry":{"type":"Point","coordinates":[72.9644619,19.1890289]},"properties":{"name":"Forest Office","position":17,"ref":"773"}},{"type":"Feature","geometry":{"type":"Point","coordinates":[72.967963,19.1912445]},"properties":{"name":"Hari Niwas","position":18,"ref":"774"}},{"type":"Feature","geometry":{"type":"Point","coordinates":[72.9686438,19.1873721]},"properties":{"name":"Ice Factory","position":19,"ref":"775"}},{"type":"Feature","geometry":{"type":"Point","coordinates":[72.9717329,19.1876776]},"properties":{"name":"A.K. Joshi Vidyalaya","position":20,"ref":"776"}},{"type":"Feature","geometry":{"type":"Point","coordinates":[72.9746814,19.1887867]},"properties":{"name":"Gaondevi","position":21,"ref":"777"}},{"type":"Feature","geometry":{"type":"Point","coordinates":[72.976106,19.186713]},"properties":{"name":"Thane Station West SATIS","position":22,"ref":"778"}}]}