{"type":"FeatureCollection","features":[{"type":"Feature","geometry":{"type":"Point","coordinates":[72.9522643,19.2837186]},"properties":{"name":"Bhaindar Pada","position":0,"ref":"1"}},{"type":"Feature","geometry":{"type":"Point","coordinates":[72.9554085,19.2810085]},"properties":{"name":"Poshmata Mandir","position":1,"ref":"2"}},{"type":"Feature","geometry":{"type":"Point","coordinates":[72.9592466,19.2758187]},"properties":{"name":"Shri Ram Hospital","position":2,"ref":"3"}},{"type":"Feature","geometry":{"type":"Point","coordinates":[72.9605585,19.2744101]},"properties":{"name":"Ovala Gaon","position":3,"ref":"4"}},{"type":"Feature","geometry":{"type":"Point","coordinates":[72.9636395,19.2719832]},"properties":{"name":"Garib Nagar","position":4,"ref":"5"}},{"type":"Feature","geometry":{"type":"Point","coordinates":[72.9655639,19.2696965]},"properties":{"name":"Vadvali Naka","position":5,"ref":"6"}},{"type":"Feature","geometry":{"type":"Point","coordinates":[72.966885,19.2669712]},"properties":{"name":"Sainath Nagar","position":6,"ref":"7"}},{"type":"Feature","geometry":{"type":"Point","coordinates":[72.9677706,19.2648226]},"properties":{"name":"Anand Nagar","position":7,"ref":"8"}},{"type":"Feature","geometry":{"type":"Point","coordinates":[72.968529,19.2628694]},"properties":{"name":"Muchhala College","position":8,"ref":"9"}},{"type":"Feature","geometry":{"type":"Point","coordinates":[72.9699404,19.2594185]},"properties":{"name":"Vijay Garden","position":9,"ref":"10"}},{"type":"Feature","geometry":{"type":"Point","coordinates":[72.9708717,19.2572802]},"properties":{"name":"Panchamrit","position":10,"ref":"11"}},{"type":"Feature","geometry":{"type":"Point","coordinates":[72.9725657,19.2528982]},"properties":{"name":"Wagh Bill Naka","position":11,"ref":"12"}},{"type":"Feature","geometry":{"type":"Point","coordinates":[72.9733919,19.2510265]},"properties":{"name":"Dongri Pada","position":12,"ref":"13"}},{"type":"Feature","geometry":{"type":"Point","coordinates":[72.9755733,19.2475834]},"properties":{"name":"Patli Pada","position":13,"ref":"14"}},{"type":"Feature","geometry":{"type":"Point","coordinates":[72.9759681,19.2420902]},"properties":{"name":"Azad Nagar Naka","position":14,"ref":"15"}},{"type":"Feature","geometry":{"type":"Point","coordinates":[72.97581,19.2393198]},"properties":{"name":"Mulla Bagh","position":15,"ref":"16"}},{"type":"Feature","geometry":{"type":"Point","coordinates":[72.9762931,19.2352799]},"properties":{"name":"Manpada","position":16,"ref":"17"}},{"type":"Feature","geometry":{"type":"Point","coordinates":[72.9768709,19.2301874]},"properties":{"name":"Lokim Company/ R Mall","position":17,"ref":"18"}},{"type":"Feature","geometry":{"type":"Point","coordinates":[72.9776278,19.2239178]},"properties":{"name":"Tattvagyan Vidyapeeth","position":18,"ref":"19"}},{"type":"Feature","geometry":{"type":"Point","coordinates":[72.9779974,19.2207952]},"properties":{"name":"Kapurbawdi","position":19,"ref":"20"}},{"type":"Feature","geometry":{"type":"Point","coordinates":[72.978135,19.2157388]},"properties":{"name":"Ashapura Mandir / Majiwada Naka","position":20,"ref":"21"}},{"type":"Feature","geometry":{"type":"Point","coordinates":[72.9725174,19.2076682]},"properties":{"name":"Flower Valley","position":21,"ref":"22"}},{"type":"Feature","geometry":{"type":"Point","coordinates":[72.9707751,19.2060586]},"properties":{"name":"Jupiter Hospital","position":22,"ref":"23"}},{"type":"Feature","geometry":{"type":"Point","coordinates":[72.9687213,19.2040422]},"properties":{"name":"Cadbury Junction","position":23,"ref":"24"}},{"type":"Feature","geometry":{"type":"Point","coordinates":[72.9634323,19.1988457]},"properties":{"name":"Nitin Company","position":24,"ref":"25"}},{"type":"Feature","geometry":{"type":"Point","coordinates":[72.9626334,19.1956093]},"properties":{"name":"Louiswadi","position":25,"ref":"26"}},{"type":"Feature","geometry":{"type":"Point","coordinates":[72.9637202,19.18864]},"properties":{"name":"Highway Darshan","position":26,"ref":"27"}},{"type":"Feature","geometry":{"type":"Point","coordinates":[72.9644665,19.1890253]},"properties":{"name":"Forest Office","position":27,"ref":"28"}},{"type":"Feature","geometry":{"type":"Point","coordinates":[72.9674372,19.191445]},"properties":{"name":"Hari Nivas","position":28,"ref":"29"}},{"type":"Feature","geometry":{"type":"Point","coordinates":[72.968646,19.1873711]},"properties":{"name":"Ice Factory","position":29,"ref":"30"}},{"type":"Feature","geometry":{"type":"Point","coordinates":[72.9717405,19.1876806]},"properties":{"name":"A.K. Joshi Vidyalaya","position":30,"ref":"31"}},{"type":"Feature","geometry":{"type":"Point","coordinates":[72.9746832,19.1887829]},"properties":{"name":"Gaondevi","position":31,"ref":"32"}},{"type":"Feature","geometry":{"type":"Point","coordinates":[72.976106,19.186713]},"properties":{"name":"Thane Station West SATIS","position":32,"ref":"33"}}]}