{"type":"FeatureCollection","features":[{"type":"Feature","geometry":{"type":"Point","coordinates":[72.976106,19.186713]},"properties":{"name":"Thane Station West SATIS","position":0,"ref":"852"}},{"type":"Feature","geometry":{"type":"Point","coordinates":[72.9766974,19.1937993]},"properties":{"name":"Talao Pali","position":1,"ref":"853"}},{"type":"Feature","geometry":{"type":"Point","coordinates":[72.9772411,19.197104]},"properties":{"name":"Tembhi Naka","position":2,"ref":"854"}},{"type":"Feature","geometry":{"type":"Point","coordinates":[72.9788275,19.1990776]},"properties":{"name":"Civil Hospital","position":3,"ref":"855"}},{"type":"Feature","geometry":{"type":"Point","coordinates":[72.9792959,19.2012554]},"properties":{"name":"Police Line","position":4,"ref":"856"}},{"type":"Feature","geometry":{"type":"Point","coordinates":[72.9787174,19.2034289]},"properties":{"name":"Holy Cross School","position":5,"ref":"857"}},{"type":"Feature","geometry":{"type":"Point","coordinates":[72.9771822,19.2073134]},"properties":{"name":"Castle Mill","position":6,"ref":"858"}},{"type":"Feature","geometry":{"type":"Point","coordinates":[72.9770189,19.2093505]},"properties":{"name":"Gokul Nagar","position":7,"ref":"859"}},{"type":"Feature","geometry":{"type":"Point","coordinates":[72.9771261,19.2108319]},"properties":{"name":"Muktai Nagar","position":8,"ref":"860"}},{"type":"Feature","geometry":{"type":"Point","coordinates":[72.9773347,19.2144869]},"properties":{"name":"Majiwada Naka","position":9,"ref":"861"}},{"type":"Feature","geometry":{"type":"Point","coordinates":[72.9799692,19.2178614]},"properties":{"name":"Kapurbawdi","position":10,"ref":"862"}},{"type":"Feature","geometry":{"type":"Point","coordinates":[72.981041,19.2180548]},"properties":{"name":"Chhabhaiya Park","position":11,"ref":"863"}},{"type":"Feature","geometry":{"type":"Point","coordinates":[72.9833925,19.218524]},"properties":{"name":"Yashaswi Nagar","position":12,"ref":"864"}},{"type":"Feature","geometry":{"type":"Point","coordinates":[72.9844013,19.2191437]},"properties":{"name":"Yashaswi Nagar Pipeline","position":13,"ref":"865"}},{"type":"Feature","geometry":{"type":"Point","coordinates":[72.9822602,19.2222873]},"properties":{"name":"Highland Park","position":14,"ref":"866"}},{"type":"Feature","geometry":{"type":"Point","coordinates":[72.9806152,19.2255203]},"properties":{"name":"Shruti Park","position":15,"ref":"867"}},{"type":"Feature","geometry":{"type":"Point","coordinates":[72.9804105,19.227185]},"properties":{"name":"Dhokali Naka","position":16,"ref":"868"}},{"type":"Feature","geometry":{"type":"Point","coordinates":[72.982248,19.2283821]},"properties":{"name":"Kavyadhara / Siddheshwar Garden","position":17,"ref":"869"}},{"type":"Feature","geometry":{"type":"Point","coordinates":[72.9841972,19.2296112]},"properties":{"name":"Wellman Company","position":18,"ref":"870"}},{"type":"Feature","geometry":{"type":"Point","coordinates":[72.9860621,19.2311459]},"properties":{"name":"Bayer Main Gate","position":19,"ref":"871"}},{"type":"Feature","geometry":{"type":"Point","coordinates":[72.9877036,19.2334149]},"properties":{"name":"Sandoz Baug","position":20,"ref":"872"}},{"type":"Feature","geometry":{"type":"Point","coordinates":[72.9885199,19.2349187]},"properties":{"name":"Novartis","position":21,"ref":"873"}},{"type":"Feature","geometry":{"type":"Point","coordinates":[72.9897829,19.2372265]},"properties":{"name":"Boringer","position":22,"ref":"874"}},{"type":"Feature","geometry":{"type":"Point","coordinates":[72.9908056,19.2391095]},"properties":{"name":"Kolshet Gaon","position":23,"ref":"875"}},{"type":"Feature","geometry":{"type":"Point","coordinates":[72.9919759,19.240434]},"properties":{"name":"Air Force Station Kolshet","position":24,"ref":"876"}},{"type":"Feature","geometry":{"type":"Point","coordinates":[72.9962996,19.2440654]},"properties":{"name":"Kolshet Trichapada","position":25,"ref":"877"}}]}