{"type":"FeatureCollection","features":[{"type":"Feature","geometry":{"type":"Point","coordinates":[73.0313147,19.1575871]},"properties":{"name":"Bharat Gears","position":0,"ref":"2383"}},{"type":"Feature","geometry":{"type":"Point","coordinates":[73.0303965,19.1592509]},"properties":{"name":"Kalsekar College","position":1,"ref":"2384"}},{"type":"Feature","geometry":{"type":"Point","coordinates":[73.0291599,19.1615912]},"properties":{"name":"Kalsekar College / K.V.K.","position":2,"ref":"2385"}},{"type":"Feature","geometry":{"type":"Point","coordinates":[73.028485,19.1633171]},"properties":{"name":"Millenium Hospital / Shimla Park","position":3,"ref":"2386"}},{"type":"Feature","geometry":{"type":"Point","coordinates":[73.0269199,19.1664801]},"properties":{"name":"Kousa Gaon","position":4,"ref":"2387"}},{"type":"Feature","geometry":{"type":"Point","coordinates":[73.0258851,19.1678503]},"properties":{"name":"Almos Colony","position":5,"ref":"2388"}},{"type":"Feature","geometry":{"type":"Point","coordinates":[73.023455,19.1720238]},"properties":{"name":"Kismat Colony","position":6,"ref":"2389"}},{"type":"Feature","geometry":{"type":"Point","coordinates":[73.0230143,19.1739747]},"properties":{"name":"Amrut Nagar","position":7,"ref":"2390"}},{"type":"Feature","geometry":{"type":"Point","coordinates":[73.0226535,19.1774717]},"properties":{"name":"Mumbra Shiv Mandir","position":8,"ref":"2391"}},{"type":"Feature","geometry":{"type":"Point","coordinates":[73.0223981,19.1811277]},"properties":{"name":"Sanjay Nagar/Shiv Sena Office","position":9,"ref":"2392"}},{"type":"Feature","geometry":{"type":"Point","coordinates":[73.0223495,19.1832994]},"properties":{"name":"Mumbra Police Station","position":10,"ref":"2393"}},{"type":"Feature","geometry":{"type":"Point","coordinates":[73.0212468,19.1856077]},"properties":{"name":"Lalit Clinic","position":11,"ref":"2394"}},{"type":"Feature","geometry":{"type":"Point","coordinates":[73.0214638,19.1875669]},"properties":{"name":"Mumbra Prabhat Office","position":12,"ref":"2395"}},{"type":"Feature","geometry":{"type":"Point","coordinates":[73.022615,19.1899468]},"properties":{"name":"Mumbra Railway Station","position":13,"ref":"2396"}},{"type":"Feature","geometry":{"type":"Point","coordinates":[73.0222099,19.2003089]},"properties":{"name":"Reti Bunder 1","position":14,"ref":"2397"}},{"type":"Feature","geometry":{"type":"Point","coordinates":[73.0204114,19.2025637]},"properties":{"name":"Reti Bunder 2/Ranna Nagar","position":15,"ref":"2398"}},{"type":"Feature","geometry":{"type":"Point","coordinates":[73.0177183,19.2069331]},"properties":{"name":"Reti Bunder 3","position":16,"ref":"2399"}},{"type":"Feature","geometry":{"type":"Point","coordinates":[73.0165969,19.2100293]},"properties":{"name":"Reti Bunder Circle","position":17,"ref":"2400"}},{"type":"Feature","geometry":{"type":"Point","coordinates":[73.0132489,19.2090458]},"properties":{"name":"Sai Nath Nagar","position":18,"ref":"2401"}},{"type":"Feature","geometry":{"type":"Point","coordinates":[73.0131355,19.2089734]},"properties":{"name":"Amrut Angan","position":19,"ref":"2402"}},{"type":"Feature","geometry":{"type":"Point","coordinates":[73.0114711,19.2077031]},"properties":{"name":"Subhash Tower","position":20,"ref":"2403"}},{"type":"Feature","geometry":{"type":"Point","coordinates":[73.0097407,19.2064713]},"properties":{"name":"Vastu Anand","position":21,"ref":"2404"}},{"type":"Feature","geometry":{"type":"Point","coordinates":[73.0085694,19.2057189]},"properties":{"name":"Parsik Nagar","position":22,"ref":"2405"}},{"type":"Feature","geometry":{"type":"Point","coordinates":[73.0073387,19.2049859]},"properties":{"name":"Raj Park","position":23,"ref":"2406"}},{"type":"Feature","geometry":{"type":"Point","coordinates":[73.0058763,19.2034769]},"properties":{"name":"Prem Nagar","position":24,"ref":"2407"}},{"type":"Feature","geometry":{"type":"Point","coordinates":[73.0016872,19.2018275]},"properties":{"name":"Kharegaon Naka","position":25,"ref":"2408"}},{"type":"Feature","geometry":{"type":"Point","coordinates":[72.9990647,19.2004804]},"properties":{"name":"Datta Wadi","position":26,"ref":"2409"}},{"type":"Feature","geometry":{"type":"Point","coordinates":[72.9953509,19.1986796]},"properties":{"name":"Sukur Park","position":27,"ref":"2410"}},{"type":"Feature","geometry":{"type":"Point","coordinates":[72.9935884,19.1977802]},"properties":{"name":"Sahyadri Society","position":28,"ref":"2411"}},{"type":"Feature","geometry":{"type":"Point","coordinates":[72.9917211,19.1969888]},"properties":{"name":"Manisha Nagar","position":29,"ref":"2412"}},{"type":"Feature","geometry":{"type":"Point","coordinates":[72.9871855,19.1954639]},"properties":{"name":"Kalwa Naka","position":30,"ref":"2413"}},{"type":"Feature","geometry":{"type":"Point","coordinates":[72.9831172,19.1971998]},"properties":{"name":"Kanhaji Agrh Chowk","position":31,"ref":"2414"}},{"type":"Feature","geometry":{"type":"Point","coordinates":[72.9812302,19.1988991]},"properties":{"name":"R.T.O Thane","position":32,"ref":"2415"}},{"type":"Feature","geometry":{"type":"Point","coordinates":[72.9799651,19.197922]},"properties":{"name":"Central Maidan","position":33,"ref":"2416"}},{"type":"Feature","geometry":{"type":"Point","coordinates":[72.9785355,19.1970508]},"properties":{"name":"Court Naka","position":34,"ref":"2417"}},{"type":"Feature","geometry":{"type":"Point","coordinates":[72.977975,19.194579]},"properties":{"name":"Jambhali Naka","position":35,"ref":"1229"}},{"type":"Feature","geometry":{"type":"Point","coordinates":[72.9769161,19.1905198]},"properties":{"name":"Prabhat Cinema","position":36,"ref":"1230"}},{"type":"Feature","geometry":{"type":"Point","coordinates":[72.976106,19.186713]},"properties":{"name":"Thane Station West SATIS","position":37,"ref":"2418"}},{"type":"Feature","geometry":{"type":"Point","coordinates":[72.9717266,19.1876098]},"properties":{"name":"A.K. Joshi Vidyalaya","position":38,"ref":"2419"}},{"type":"Feature","geometry":{"type":"Point","coordinates":[72.9674388,19.1878816]},"properties":{"name":"Shahu Maharaj Market","position":39,"ref":"2420"}},{"type":"Feature","geometry":{"type":"Point","coordinates":[72.9676929,19.1904637]},"properties":{"name":"Hari Niwas","position":40,"ref":"2421"}},{"type":"Feature","geometry":{"type":"Point","coordinates":[72.9647042,19.1889373]},"properties":{"name":"Forest Office","position":41,"ref":"2422"}},{"type":"Feature","geometry":{"type":"Point","coordinates":[72.9640903,19.1876328]},"properties":{"name":"Teen Hath Naka","position":42,"ref":"2423"}},{"type":"Feature","geometry":{"type":"Point","coordinates":[72.9611662,19.1866943]},"properties":{"name":"Johnson Company","position":43,"ref":"2424"}},{"type":"Feature","geometry":{"type":"Point","coordinates":[72.9580201,19.1857315]},"properties":{"name":"Kashish Park","position":44,"ref":"2425"}},{"type":"Feature","geometry":{"type":"Point","coordinates":[72.9565959,19.1855414]},"properties":{"name":"Mulund Check Naka","position":45,"ref":"2426"}},{"type":"Feature","geometry":{"type":"Point","coordinates":[72.9551444,19.1874049]},"properties":{"name":"Automatic Company","position":46,"ref":"2427"}},{"type":"Feature","geometry":{"type":"Point","coordinates":[72.9552491,19.1910986]},"properties":{"name":"M.I.D.C","position":47,"ref":"2428"}},{"type":"Feature","geometry":{"type":"Point","coordinates":[72.9550441,19.1921022]},"properties":{"name":"Passport Office","position":48,"ref":"2429"}},{"type":"Feature","geometry":{"type":"Point","coordinates":[72.9538549,19.1933874]},"properties":{"name":"Road No 16","position":49,"ref":"2430"}},{"type":"Feature","geometry":{"type":"Point","coordinates":[72.9495782,19.1945652]},"properties":{"name":"Wagle Circle","position":50,"ref":"2431"}},{"type":"Feature","geometry":{"type":"Point","coordinates":[72.9490225,19.200688]},"properties":{"name":"Sathe Nagar","position":51,"ref":"2432"}},{"type":"Feature","geometry":{"type":"Point","coordinates":[72.9453923,19.2007463]},"properties":{"name":"Wagle Bus Depot","position":52,"ref":"2433"}}]}