{"type":"FeatureCollection","features":[{"type":"Feature","geometry":{"type":"Point","coordinates":[72.9459266,19.2015885]},"properties":{"name":"Wagle Bus Depot","position":0,"ref":"154"}},{"type":"Feature","geometry":{"type":"Point","coordinates":[72.949121,19.201216]},"properties":{"name":"Sathe Nagar","position":1,"ref":"155"}},{"type":"Feature","geometry":{"type":"Point","coordinates":[72.949415,19.202635]},"properties":{"name":"Gyan Sarita Sada","position":2,"ref":"156"}},{"type":"Feature","geometry":{"type":"Point","coordinates":[72.9498413,19.2047309]},"properties":{"name":"Indira Nagar","position":3,"ref":"1807"}},{"type":"Feature","geometry":{"type":"Point","coordinates":[72.9534702,19.2043118]},"properties":{"name":"Savarkar Nagar Naka","position":4,"ref":"158"}},{"type":"Feature","geometry":{"type":"Point","coordinates":[72.9554469,19.2034302]},"properties":{"name":"Kamgar Hospital","position":5,"ref":"1808"}},{"type":"Feature","geometry":{"type":"Point","coordinates":[72.9575545,19.2020475]},"properties":{"name":"Dnyaneshwar Nagar","position":6,"ref":"160"}},{"type":"Feature","geometry":{"type":"Point","coordinates":[72.9612617,19.2006486]},"properties":{"name":"Vaiti Wadi","position":7,"ref":"161"}},{"type":"Feature","geometry":{"type":"Point","coordinates":[72.9625606,19.2000822]},"properties":{"name":"Ramchandra Nagar","position":8,"ref":"1809"}},{"type":"Feature","geometry":{"type":"Point","coordinates":[72.9646164,19.1992518]},"properties":{"name":"Nitin Company","position":9,"ref":"1810"}},{"type":"Feature","geometry":{"type":"Point","coordinates":[72.9668465,19.1981724]},"properties":{"name":"Namdev Wadi","position":10,"ref":"164"}},{"type":"Feature","geometry":{"type":"Point","coordinates":[72.9675121,19.1971875]},"properties":{"name":"Mahapalika Bhavan","position":11,"ref":"1811"}},{"type":"Feature","geometry":{"type":"Point","coordinates":[72.9667866,19.1947608]},"properties":{"name":"Parmarth Niketan","position":12,"ref":"1812"}},{"type":"Feature","geometry":{"type":"Point","coordinates":[72.9670451,19.1936122]},"properties":{"name":"Pradeep Society","position":13,"ref":"1813"}},{"type":"Feature","geometry":{"type":"Point","coordinates":[72.9683893,19.1927332]},"properties":{"name":"Aradhana Cinema","position":14,"ref":"1814"}},{"type":"Feature","geometry":{"type":"Point","coordinates":[72.9679592,19.1912492]},"properties":{"name":"Hari Niwas","position":15,"ref":"1815"}},{"type":"Feature","geometry":{"type":"Point","coordinates":[72.9686461,19.187372]},"properties":{"name":"Ice Factory","position":16,"ref":"1816"}},{"type":"Feature","geometry":{"type":"Point","coordinates":[72.9717321,19.1876773]},"properties":{"name":"A.K. Joshi Vidyalaya","position":17,"ref":"1817"}},{"type":"Feature","geometry":{"type":"Point","coordinates":[72.9746782,19.1887836]},"properties":{"name":"Gaondevi","position":18,"ref":"1818"}},{"type":"Feature","geometry":{"type":"Point","coordinates":[72.976106,19.186713]},"properties":{"name":"Thane Station West SATIS","position":19,"ref":"1819"}},{"type":"Feature","geometry":{"type":"Point","coordinates":[72.97671,19.1937987]},"properties":{"name":"Jablinaka","position":20,"ref":"1820"}},{"type":"Feature","geometry":{"type":"Point","coordinates":[72.9772424,19.1971039]},"properties":{"name":"Tembhi Naka","position":21,"ref":"1821"}},{"type":"Feature","geometry":{"type":"Point","coordinates":[72.977379,19.1991866]},"properties":{"name":"Civil Hospital","position":22,"ref":"1822"}},{"type":"Feature","geometry":{"type":"Point","coordinates":[72.977752,19.2017996]},"properties":{"name":"School No 7","position":23,"ref":"1823"}},{"type":"Feature","geometry":{"type":"Point","coordinates":[72.978002,19.2029423]},"properties":{"name":"Uthalsar","position":24,"ref":"1824"}},{"type":"Feature","geometry":{"type":"Point","coordinates":[72.9779724,19.205182]},"properties":{"name":"Desai Bangla","position":25,"ref":"1825"}},{"type":"Feature","geometry":{"type":"Point","coordinates":[72.9801307,19.2061647]},"properties":{"name":"Shrirang Society","position":26,"ref":"1826"}},{"type":"Feature","geometry":{"type":"Point","coordinates":[72.9821982,19.2060475]},"properties":{"name":"Rabodi","position":27,"ref":"1827"}},{"type":"Feature","geometry":{"type":"Point","coordinates":[72.9827563,19.2084109]},"properties":{"name":"Vrindavan Society","position":28,"ref":"1828"}}]}