{"type":"FeatureCollection","features":[{"type":"Feature","geometry":{"type":"Point","coordinates":[73.0674254,19.158929]},"properties":{"name":"Khirkali","position":0,"ref":"3603"}},{"type":"Feature","geometry":{"type":"Point","coordinates":[73.0642469,19.15658]},"properties":{"name":"Khidkali Temple","position":1,"ref":"3604"}},{"type":"Feature","geometry":{"type":"Point","coordinates":[73.0603367,19.1536106]},"properties":{"name":"Padle Gaon","position":2,"ref":"3605"}},{"type":"Feature","geometry":{"type":"Point","coordinates":[73.0551863,19.1498606]},"properties":{"name":"Mhatre Wadi / Patil Wadi","position":3,"ref":"3606"}},{"type":"Feature","geometry":{"type":"Point","coordinates":[73.0513048,19.1469407]},"properties":{"name":"Chintamani Hotel / Jain Temple","position":4,"ref":"3607"}},{"type":"Feature","geometry":{"type":"Point","coordinates":[73.0473419,19.1425706]},"properties":{"name":"Kalyan Phata","position":5,"ref":"3608"}},{"type":"Feature","geometry":{"type":"Point","coordinates":[73.0453168,19.143616]},"properties":{"name":"Shil Phata","position":6,"ref":"3609"}},{"type":"Feature","geometry":{"type":"Point","coordinates":[73.0405104,19.1473875]},"properties":{"name":"Swarvali Devi","position":7,"ref":"3610"}},{"type":"Feature","geometry":{"type":"Point","coordinates":[73.0402197,19.14762]},"properties":{"name":"Shibli Nagar","position":8,"ref":"3611"}},{"type":"Feature","geometry":{"type":"Point","coordinates":[73.0401042,19.1477153]},"properties":{"name":"Diwale/Bhandarli Gaon","position":9,"ref":"3612"}},{"type":"Feature","geometry":{"type":"Point","coordinates":[73.0313149,19.1575876]},"properties":{"name":"Bharat Gears","position":10,"ref":"3613"}},{"type":"Feature","geometry":{"type":"Point","coordinates":[73.0291585,19.1615901]},"properties":{"name":"Kalsekar College / K.V.K.","position":11,"ref":"3614"}},{"type":"Feature","geometry":{"type":"Point","coordinates":[73.0284846,19.1633161]},"properties":{"name":"Millenium Hospital / Shimla Park","position":12,"ref":"3615"}},{"type":"Feature","geometry":{"type":"Point","coordinates":[73.028333,19.1643103]},"properties":{"name":"Kousa Jama Masjid","position":13,"ref":"3616"}},{"type":"Feature","geometry":{"type":"Point","coordinates":[73.0269189,19.1664794]},"properties":{"name":"Kousa Gaon","position":14,"ref":"3617"}},{"type":"Feature","geometry":{"type":"Point","coordinates":[73.0258871,19.16785]},"properties":{"name":"Almos Colony","position":15,"ref":"3618"}},{"type":"Feature","geometry":{"type":"Point","coordinates":[73.0244444,19.1700725]},"properties":{"name":"Nashimat Colony","position":16,"ref":"3619"}},{"type":"Feature","geometry":{"type":"Point","coordinates":[73.0234554,19.1720242]},"properties":{"name":"Kismat Colony","position":17,"ref":"3620"}},{"type":"Feature","geometry":{"type":"Point","coordinates":[73.0230147,19.1739736]},"properties":{"name":"Amrut Nagar","position":18,"ref":"3621"}},{"type":"Feature","geometry":{"type":"Point","coordinates":[73.0226539,19.177472]},"properties":{"name":"Mumbra Shiv Mandir","position":19,"ref":"3622"}},{"type":"Feature","geometry":{"type":"Point","coordinates":[73.022395,19.1811284]},"properties":{"name":"Sanjay Nagar/Shiv Sena Office","position":20,"ref":"3623"}},{"type":"Feature","geometry":{"type":"Point","coordinates":[73.0223426,19.1832989]},"properties":{"name":"Mumbra Police Station","position":21,"ref":"3624"}},{"type":"Feature","geometry":{"type":"Point","coordinates":[73.021246,19.1856076]},"properties":{"name":"Lalit Clinic","position":22,"ref":"3625"}},{"type":"Feature","geometry":{"type":"Point","coordinates":[73.0214652,19.1875663]},"properties":{"name":"Mumbra Prabhat Office","position":23,"ref":"3626"}},{"type":"Feature","geometry":{"type":"Point","coordinates":[73.0226163,19.1899461]},"properties":{"name":"Mumbra Railway Station","position":24,"ref":"3627"}},{"type":"Feature","geometry":{"type":"Point","coordinates":[73.0227952,19.1932608]},"properties":{"name":"Dattu Wadi Mumbra/Sainath Hospital","position":25,"ref":"3628"}},{"type":"Feature","geometry":{"type":"Point","coordinates":[73.0222076,19.2003094]},"properties":{"name":"Retibunder Number 1","position":26,"ref":"3629"}},{"type":"Feature","geometry":{"type":"Point","coordinates":[73.0204057,19.2025636]},"properties":{"name":"Retibunder Number 2/Ranna Nagar","position":27,"ref":"3630"}},{"type":"Feature","geometry":{"type":"Point","coordinates":[73.0177184,19.2069334]},"properties":{"name":"Retibunder Number 3","position":28,"ref":"3631"}},{"type":"Feature","geometry":{"type":"Point","coordinates":[73.0157113,19.2106337]},"properties":{"name":"Reti Bunder Circle","position":29,"ref":"3632"}},{"type":"Feature","geometry":{"type":"Point","coordinates":[73.0132495,19.2090422]},"properties":{"name":"Sainath Nagar","position":30,"ref":"3633"}},{"type":"Feature","geometry":{"type":"Point","coordinates":[73.0131302,19.208947]},"properties":{"name":"Amrut Angan","position":31,"ref":"3634"}},{"type":"Feature","geometry":{"type":"Point","coordinates":[73.0114706,19.2077055]},"properties":{"name":"Subhash Tower","position":32,"ref":"3635"}},{"type":"Feature","geometry":{"type":"Point","coordinates":[73.0097404,19.2064718]},"properties":{"name":"Vastu Anand","position":33,"ref":"3636"}},{"type":"Feature","geometry":{"type":"Point","coordinates":[73.0093024,19.2061876]},"properties":{"name":"Vimal Nagar","position":34,"ref":"3637"}},{"type":"Feature","geometry":{"type":"Point","coordinates":[73.0073357,19.204986]},"properties":{"name":"Raj Park","position":35,"ref":"3638"}},{"type":"Feature","geometry":{"type":"Point","coordinates":[73.0058759,19.2034763]},"properties":{"name":"Prem Nagar","position":36,"ref":"3639"}},{"type":"Feature","geometry":{"type":"Point","coordinates":[73.001687,19.2018282]},"properties":{"name":"Kharegaon Naka","position":37,"ref":"3640"}},{"type":"Feature","geometry":{"type":"Point","coordinates":[72.9990719,19.2004809]},"properties":{"name":"Datta Wadi","position":38,"ref":"3641"}},{"type":"Feature","geometry":{"type":"Point","coordinates":[72.9953518,19.198679]},"properties":{"name":"Sukur Park","position":39,"ref":"3642"}},{"type":"Feature","geometry":{"type":"Point","coordinates":[72.9935883,19.1977788]},"properties":{"name":"Sahyadri Society","position":40,"ref":"3643"}},{"type":"Feature","geometry":{"type":"Point","coordinates":[72.9917209,19.1969861]},"properties":{"name":"Manisha Nagar","position":41,"ref":"3644"}},{"type":"Feature","geometry":{"type":"Point","coordinates":[72.9873949,19.1958365]},"properties":{"name":"Kalwa Naka","position":42,"ref":"3645"}},{"type":"Feature","geometry":{"type":"Point","coordinates":[72.983955,19.1970777]},"properties":{"name":"Court Naka","position":43,"ref":"3646"}},{"type":"Feature","geometry":{"type":"Point","coordinates":[72.9831167,19.1951532]},"properties":{"name":"Mahagiri Koliwada","position":44,"ref":"3647"}},{"type":"Feature","geometry":{"type":"Point","coordinates":[72.9807989,19.1919445]},"properties":{"name":"Dadoji Konddev Stadium","position":45,"ref":"3648"}},{"type":"Feature","geometry":{"type":"Point","coordinates":[72.9798191,19.1878608]},"properties":{"name":"Chendani Koliwada","position":46,"ref":"3649"}}]}