{"type":"FeatureCollection","features":[{"type":"Feature","geometry":{"type":"Point","coordinates":[72.8575547,19.2296796]},"properties":{"name":"Borivali Station (East)","position":0,"ref":"3969"}},{"type":"Feature","geometry":{"type":"Point","coordinates":[72.8625064,19.2313489]},"properties":{"name":"Omkareshwar Mandir","position":1,"ref":"3970"}},{"type":"Feature","geometry":{"type":"Point","coordinates":[72.8644963,19.2246232]},"properties":{"name":"Devipada","position":2,"ref":"3971"}},{"type":"Feature","geometry":{"type":"Point","coordinates":[72.8686582,19.2115629]},"properties":{"name":"Dattani Park","position":3,"ref":"3972"}},{"type":"Feature","geometry":{"type":"Point","coordinates":[72.861115,19.1991338]},"properties":{"name":"Bandongri","position":4,"ref":"3973"}},{"type":"Feature","geometry":{"type":"Point","coordinates":[72.8585977,19.1852003]},"properties":{"name":"Kurar Village","position":5,"ref":"3974"}},{"type":"Feature","geometry":{"type":"Point","coordinates":[72.859253,19.1706406]},"properties":{"name":"Virwani Estate /Sarvoday Nagar","position":6,"ref":"3975"}},{"type":"Feature","geometry":{"type":"Point","coordinates":[72.8572366,19.1545337]},"properties":{"name":"Vanrai / Mhada Colony","position":7,"ref":"3976"}},{"type":"Feature","geometry":{"type":"Point","coordinates":[72.8562679,19.1409479]},"properties":{"name":"Pratap Nagar","position":8,"ref":"3977"}},{"type":"Feature","geometry":{"type":"Point","coordinates":[72.8585355,19.1404861]},"properties":{"name":"Ramwadi","position":9,"ref":"3978"}},{"type":"Feature","geometry":{"type":"Point","coordinates":[72.8609158,19.1394874]},"properties":{"name":"Datta Tekdi","position":10,"ref":"3979"}},{"type":"Feature","geometry":{"type":"Point","coordinates":[72.8634803,19.1390046]},"properties":{"name":"Shyam Nagar","position":11,"ref":"3980"}},{"type":"Feature","geometry":{"type":"Point","coordinates":[72.8651573,19.1392279]},"properties":{"name":"Majas Depot","position":12,"ref":"3981"}},{"type":"Feature","geometry":{"type":"Point","coordinates":[72.867728,19.139915]},"properties":{"name":"Kalpataru Estate","position":13,"ref":"3982"}},{"type":"Feature","geometry":{"type":"Point","coordinates":[72.8692422,19.1397224]},"properties":{"name":"Green Fields","position":14,"ref":"3983"}},{"type":"Feature","geometry":{"type":"Point","coordinates":[72.8720981,19.1383398]},"properties":{"name":"Durga Nagar","position":15,"ref":"3984"}},{"type":"Feature","geometry":{"type":"Point","coordinates":[72.8746887,19.1336385]},"properties":{"name":"Kamal Amrohi Studio","position":16,"ref":"3985"}},{"type":"Feature","geometry":{"type":"Point","coordinates":[72.8762571,19.1295804]},"properties":{"name":"Seepz Gaon","position":17,"ref":"3986"}},{"type":"Feature","geometry":{"type":"Point","coordinates":[72.87272,19.1247574]},"properties":{"name":"Seepz Bus Station","position":18,"ref":"3987"}},{"type":"Feature","geometry":{"type":"Point","coordinates":[72.8720171,19.1237002]},"properties":{"name":"C-Cross Road","position":19,"ref":"3988"}},{"type":"Feature","geometry":{"type":"Point","coordinates":[72.8706168,19.121538]},"properties":{"name":"Orkay Mill","position":20,"ref":"3989"}},{"type":"Feature","geometry":{"type":"Point","coordinates":[72.8698804,19.1185236]},"properties":{"name":"Gautam Nagar","position":21,"ref":"3990"}},{"type":"Feature","geometry":{"type":"Point","coordinates":[72.8674497,19.1178379]},"properties":{"name":"M.I.D.C Chakala","position":22,"ref":"3991"}},{"type":"Feature","geometry":{"type":"Point","coordinates":[72.8652881,19.1183149]},"properties":{"name":"Marol Bus Depot","position":23,"ref":"3766"}},{"type":"Feature","geometry":{"type":"Point","coordinates":[72.8628936,19.1172441]},"properties":{"name":"Nelco Company","position":24,"ref":"3992"}},{"type":"Feature","geometry":{"type":"Point","coordinates":[72.8589512,19.113425]},"properties":{"name":"Chakala","position":25,"ref":"3993"}},{"type":"Feature","geometry":{"type":"Point","coordinates":[72.8481895,19.1192184]},"properties":{"name":"Andheri Station (E) Agarkar Chowk","position":26,"ref":"3762"}}]}