{"type":"FeatureCollection","features":[{"type":"Feature","geometry":{"type":"Point","coordinates":[72.9830836,19.2316556]},"properties":{"name":"Everest World Park","position":0,"ref":"3719"}},{"type":"Feature","geometry":{"type":"Point","coordinates":[72.9843967,19.2295415]},"properties":{"name":"Wellman Company","position":1,"ref":"3720"}},{"type":"Feature","geometry":{"type":"Point","coordinates":[72.9823255,19.228219]},"properties":{"name":"Kavyadhara / Siddheshwar Garden","position":2,"ref":"3721"}},{"type":"Feature","geometry":{"type":"Point","coordinates":[72.9805721,19.2271459]},"properties":{"name":"Dhokali Naka","position":3,"ref":"3722"}},{"type":"Feature","geometry":{"type":"Point","coordinates":[72.9808683,19.2255437]},"properties":{"name":"Shruti Park","position":4,"ref":"3723"}},{"type":"Feature","geometry":{"type":"Point","coordinates":[72.9823855,19.2222317]},"properties":{"name":"Highland Park","position":5,"ref":"3724"}},{"type":"Feature","geometry":{"type":"Point","coordinates":[72.9835607,19.2183204]},"properties":{"name":"Yashaswi Nagar","position":6,"ref":"3725"}},{"type":"Feature","geometry":{"type":"Point","coordinates":[72.9812511,19.2176574]},"properties":{"name":"Chhabhaiya Park","position":7,"ref":"3726"}},{"type":"Feature","geometry":{"type":"Point","coordinates":[72.9798868,19.2175553]},"properties":{"name":"Kapurbawdi","position":8,"ref":"3727"}},{"type":"Feature","geometry":{"type":"Point","coordinates":[72.9779939,19.2143163]},"properties":{"name":"Majiwada Naka","position":9,"ref":"3728"}},{"type":"Feature","geometry":{"type":"Point","coordinates":[72.9772709,19.2105727]},"properties":{"name":"Muktai Nagar","position":10,"ref":"3729"}},{"type":"Feature","geometry":{"type":"Point","coordinates":[72.9771319,19.2088871]},"properties":{"name":"Gokul Nagar","position":11,"ref":"3730"}},{"type":"Feature","geometry":{"type":"Point","coordinates":[72.9774979,19.2071088]},"properties":{"name":"Ambika Yoga Kutir","position":12,"ref":"3731"}},{"type":"Feature","geometry":{"type":"Point","coordinates":[72.9781969,19.2046577]},"properties":{"name":"Abhiruchi","position":13,"ref":"3732"}},{"type":"Feature","geometry":{"type":"Point","coordinates":[72.9795572,19.2011585]},"properties":{"name":"Police Line","position":14,"ref":"3733"}},{"type":"Feature","geometry":{"type":"Point","coordinates":[72.9799593,19.1979211]},"properties":{"name":"Central Maidan","position":15,"ref":"3734"}},{"type":"Feature","geometry":{"type":"Point","coordinates":[72.9785353,19.197061]},"properties":{"name":"Court Naka","position":16,"ref":"3735"}},{"type":"Feature","geometry":{"type":"Point","coordinates":[72.977975,19.194579]},"properties":{"name":"Jambhali Naka","position":17,"ref":"1229"}},{"type":"Feature","geometry":{"type":"Point","coordinates":[72.975421,19.18701]},"properties":{"name":"Thane Station West SATIS","position":18,"ref":"3706"}}]}