{"type":"FeatureCollection","features":[{"type":"Feature","geometry":{"type":"Point","coordinates":[72.9522876,19.2093573]},"properties":{"name":"Lokmanya Nagar","position":0,"ref":"3218"}},{"type":"Feature","geometry":{"type":"Point","coordinates":[72.9540062,19.2085084]},"properties":{"name":"Yashodhan Nagar","position":1,"ref":"3219"}},{"type":"Feature","geometry":{"type":"Point","coordinates":[72.95425928,19.20606078]},"properties":{"name":"Sawarkar Nagar","position":2,"ref":"3220"}},{"type":"Feature","geometry":{"type":"Point","coordinates":[72.9541217,19.2036509]},"properties":{"name":"Kamgar Hospital Thane","position":3,"ref":"3221"}},{"type":"Feature","geometry":{"type":"Point","coordinates":[72.9537287,19.2020494]},"properties":{"name":"Jai Bhawani Nagar","position":4,"ref":"3222"}},{"type":"Feature","geometry":{"type":"Point","coordinates":[72.9539748,19.2000843]},"properties":{"name":"Agriculture","position":5,"ref":"3223"}},{"type":"Feature","geometry":{"type":"Point","coordinates":[72.9556565,19.1977496]},"properties":{"name":"Ambika Nagar","position":6,"ref":"3224"}},{"type":"Feature","geometry":{"type":"Point","coordinates":[72.953771,19.1937012]},"properties":{"name":"Road No 16","position":7,"ref":"3225"}},{"type":"Feature","geometry":{"type":"Point","coordinates":[72.955442,19.1911632]},"properties":{"name":"M.I.D.C","position":8,"ref":"3226"}},{"type":"Feature","geometry":{"type":"Point","coordinates":[72.9566807,19.1858298]},"properties":{"name":"Mulund Check Naka (Narpoli)","position":9,"ref":"3227"}},{"type":"Feature","geometry":{"type":"Point","coordinates":[72.9644606,19.1890219]},"properties":{"name":"Forest Office","position":10,"ref":"3228"}},{"type":"Feature","geometry":{"type":"Point","coordinates":[72.9679519,19.1912478]},"properties":{"name":"Hari Niwas","position":11,"ref":"3229"}},{"type":"Feature","geometry":{"type":"Point","coordinates":[72.9686447,19.1873646]},"properties":{"name":"Ice Factory","position":12,"ref":"3230"}},{"type":"Feature","geometry":{"type":"Point","coordinates":[72.9717325,19.1876623]},"properties":{"name":"A.K. Joshi Vidyalaya","position":13,"ref":"3231"}},{"type":"Feature","geometry":{"type":"Point","coordinates":[72.9746784,19.1887786]},"properties":{"name":"Gaondevi","position":14,"ref":"3232"}},{"type":"Feature","geometry":{"type":"Point","coordinates":[72.9772051,19.1871792]},"properties":{"name":"Thane Station West SATIS","position":15,"ref":"3233"}}]}