{"type":"FeatureCollection","features":[{"type":"Feature","geometry":{"type":"Point","coordinates":[72.9839502,19.2571575]},"properties":{"name":"Hiranandani","position":0,"ref":"3902"}},{"type":"Feature","geometry":{"type":"Point","coordinates":[72.9816072,19.2537776]},"properties":{"name":"Forest Avenue","position":1,"ref":"3903"}},{"type":"Feature","geometry":{"type":"Point","coordinates":[72.9795073,19.2496882]},"properties":{"name":"Leonard","position":2,"ref":"3904"}},{"type":"Feature","geometry":{"type":"Point","coordinates":[72.9781803,19.2483262]},"properties":{"name":"Municipal Commissioner House","position":3,"ref":"3905"}},{"type":"Feature","geometry":{"type":"Point","coordinates":[72.978866,19.248088]},"properties":{"name":"Rutu Tower","position":4,"ref":"3906"}},{"type":"Feature","geometry":{"type":"Point","coordinates":[72.982364,19.245525]},"properties":{"name":"Atriya Society","position":5,"ref":"3907"}},{"type":"Feature","geometry":{"type":"Point","coordinates":[72.9829268,19.2433839]},"properties":{"name":"Swastik Park","position":6,"ref":"3908"}},{"type":"Feature","geometry":{"type":"Point","coordinates":[72.9815864,19.2411262]},"properties":{"name":"Brahmand Phase 2","position":7,"ref":"3909"}},{"type":"Feature","geometry":{"type":"Point","coordinates":[72.9806732,19.2394607]},"properties":{"name":"Azad Nagar","position":8,"ref":"3910"}},{"type":"Feature","geometry":{"type":"Point","coordinates":[72.975902,19.2410264]},"properties":{"name":"Azad Nagar Naka","position":9,"ref":"3911"}},{"type":"Feature","geometry":{"type":"Point","coordinates":[72.9757995,19.2393272]},"properties":{"name":"Mulla Bagh","position":10,"ref":"3912"}},{"type":"Feature","geometry":{"type":"Point","coordinates":[72.9763078,19.2352856]},"properties":{"name":"Manpada","position":11,"ref":"3913"}},{"type":"Feature","geometry":{"type":"Point","coordinates":[72.9768811,19.2301957]},"properties":{"name":"Lockim Company / R Mall","position":12,"ref":"3914"}},{"type":"Feature","geometry":{"type":"Point","coordinates":[72.9775,19.22494]},"properties":{"name":"Hyde Park","position":13,"ref":"3915"}},{"type":"Feature","geometry":{"type":"Point","coordinates":[72.9776152,19.2239245]},"properties":{"name":"Tattvagyan Vidyapeeth","position":14,"ref":"3916"}},{"type":"Feature","geometry":{"type":"Point","coordinates":[72.9779823,19.2208028]},"properties":{"name":"Kapurbawdi","position":15,"ref":"3917"}},{"type":"Feature","geometry":{"type":"Point","coordinates":[72.9781291,19.2157383]},"properties":{"name":"Ashapura Mandir","position":16,"ref":"3918"}},{"type":"Feature","geometry":{"type":"Point","coordinates":[72.9779912,19.2143165]},"properties":{"name":"Majiwada Naka","position":17,"ref":"3919"}},{"type":"Feature","geometry":{"type":"Point","coordinates":[72.9746009,19.2097019]},"properties":{"name":"Siddhivinayak Tower","position":18,"ref":"3920"}},{"type":"Feature","geometry":{"type":"Point","coordinates":[72.972507,19.2076763]},"properties":{"name":"Flower Valley","position":19,"ref":"3921"}},{"type":"Feature","geometry":{"type":"Point","coordinates":[72.968711,19.2040509]},"properties":{"name":"Cadbury Juction","position":20,"ref":"3922"}},{"type":"Feature","geometry":{"type":"Point","coordinates":[72.9634086,19.1988496]},"properties":{"name":"Nitin Company","position":21,"ref":"3923"}},{"type":"Feature","geometry":{"type":"Point","coordinates":[72.9626147,19.1956106]},"properties":{"name":"Louiswadi","position":22,"ref":"3924"}},{"type":"Feature","geometry":{"type":"Point","coordinates":[72.9640872,19.1876336]},"properties":{"name":"Teen Hath Naka","position":23,"ref":"3925"}},{"type":"Feature","geometry":{"type":"Point","coordinates":[72.9652724,19.1842699]},"properties":{"name":"Gynan Sadhana College","position":24,"ref":"3926"}},{"type":"Feature","geometry":{"type":"Point","coordinates":[72.9674328,19.1788687]},"properties":{"name":"Anand Nagar","position":25,"ref":"3927"}},{"type":"Feature","geometry":{"type":"Point","coordinates":[72.9646062,19.1654711]},"properties":{"name":"Mithagar","position":26,"ref":"3928"}},{"type":"Feature","geometry":{"type":"Point","coordinates":[72.9566687,19.1537427]},"properties":{"name":"Bhandup Pumping Centre","position":27,"ref":"3929"}},{"type":"Feature","geometry":{"type":"Point","coordinates":[72.9417483,19.1299568]},"properties":{"name":"Kanjur Marg Village","position":28,"ref":"3832"}},{"type":"Feature","geometry":{"type":"Point","coordinates":[72.9375924,19.1211657]},"properties":{"name":"Vikhroli Police Station","position":29,"ref":"3930"}},{"type":"Feature","geometry":{"type":"Point","coordinates":[72.9356231,19.1165029]},"properties":{"name":"Kannamwar Nagar","position":30,"ref":"3931"}},{"type":"Feature","geometry":{"type":"Point","coordinates":[72.9324376,19.1084719]},"properties":{"name":"Vikhroli Station Road","position":31,"ref":"3932"}},{"type":"Feature","geometry":{"type":"Point","coordinates":[72.9260689,19.0931358]},"properties":{"name":"Godrej Soaps","position":32,"ref":"3933"}},{"type":"Feature","geometry":{"type":"Point","coordinates":[72.9157361,19.0775752]},"properties":{"name":"Ramabai Nagar","position":33,"ref":"3934"}},{"type":"Feature","geometry":{"type":"Point","coordinates":[72.9130968,19.074828]},"properties":{"name":"Nalanda","position":34,"ref":"3935"}},{"type":"Feature","geometry":{"type":"Point","coordinates":[72.9111535,19.0732933]},"properties":{"name":"R.T.O. / Kamraj Nagar","position":35,"ref":"3936"}},{"type":"Feature","geometry":{"type":"Point","coordinates":[72.9043747,19.0686409]},"properties":{"name":"Chheda Nagar","position":36,"ref":"3937"}},{"type":"Feature","geometry":{"type":"Point","coordinates":[72.894339,19.0649364]},"properties":{"name":"Sahakar Nagar","position":37,"ref":"3938"}},{"type":"Feature","geometry":{"type":"Point","coordinates":[72.8726527,19.0750248]},"properties":{"name":"Kapadia Nagar","position":38,"ref":"3939"}},{"type":"Feature","geometry":{"type":"Point","coordinates":[72.8712083,19.0736576]},"properties":{"name":"Mohammad Estate","position":39,"ref":"3940"}},{"type":"Feature","geometry":{"type":"Point","coordinates":[72.871645,19.0706531]},"properties":{"name":"MTNL Telephone Exchange BKC","position":40,"ref":"3941"}},{"type":"Feature","geometry":{"type":"Point","coordinates":[72.8677372,19.0685355]},"properties":{"name":"Citi Bank BKC","position":41,"ref":"3942"}},{"type":"Feature","geometry":{"type":"Point","coordinates":[72.8649108,19.0667897]},"properties":{"name":"Diamond Market BKC","position":42,"ref":"3943"}},{"type":"Feature","geometry":{"type":"Point","coordinates":[72.8614176,19.0646073]},"properties":{"name":"ICICI Bank BKC","position":43,"ref":"3944"}},{"type":"Feature","geometry":{"type":"Point","coordinates":[72.8595095,19.0617532]},"properties":{"name":"Bharat Nagar","position":44,"ref":"3945"}},{"type":"Feature","geometry":{"type":"Point","coordinates":[72.8532666,19.0576886]},"properties":{"name":"Reserve Bank Of India (RBI) BKC","position":45,"ref":"3946"}},{"type":"Feature","geometry":{"type":"Point","coordinates":[72.8514467,19.0560168]},"properties":{"name":"Family Court BKC","position":46,"ref":"3947"}},{"type":"Feature","geometry":{"type":"Point","coordinates":[72.8529704,19.0562861]},"properties":{"name":"BKC","position":47,"ref":"3855"}}]}