{"type":"FeatureCollection","features":[{"type":"Feature","geometry":{"type":"Point","coordinates":[72.9866952,19.2563574]},"properties":{"name":"Bluebell","position":0,"ref":"3384"}},{"type":"Feature","geometry":{"type":"Point","coordinates":[72.983968,19.257143]},"properties":{"name":"Gold Croft","position":1,"ref":"3385"}},{"type":"Feature","geometry":{"type":"Point","coordinates":[72.9805897,19.2520752]},"properties":{"name":"Forest Avenue","position":2,"ref":"3386"}},{"type":"Feature","geometry":{"type":"Point","coordinates":[72.9804317,19.2510481]},"properties":{"name":"Leonard","position":3,"ref":"3387"}},{"type":"Feature","geometry":{"type":"Point","coordinates":[72.9795097,19.249688]},"properties":{"name":"Shree Maa Bal Niketan","position":4,"ref":"3388"}},{"type":"Feature","geometry":{"type":"Point","coordinates":[72.979032,19.2480665]},"properties":{"name":"Rutu Tower","position":5,"ref":"3389"}},{"type":"Feature","geometry":{"type":"Point","coordinates":[72.9823651,19.2455357]},"properties":{"name":"Atriya Society","position":6,"ref":"3390"}},{"type":"Feature","geometry":{"type":"Point","coordinates":[72.9829335,19.2433849]},"properties":{"name":"Swastik Park","position":7,"ref":"3391"}},{"type":"Feature","geometry":{"type":"Point","coordinates":[72.9815862,19.2411191]},"properties":{"name":"Brahmand Phase 4","position":8,"ref":"3392"}},{"type":"Feature","geometry":{"type":"Point","coordinates":[72.9806731,19.239461]},"properties":{"name":"Azad Nagar","position":9,"ref":"3393"}},{"type":"Feature","geometry":{"type":"Point","coordinates":[72.9774586,19.2403586]},"properties":{"name":"St. Xaviers School","position":10,"ref":"3394"}},{"type":"Feature","geometry":{"type":"Point","coordinates":[72.9759226,19.2410254]},"properties":{"name":"Azad Nagar Naka","position":11,"ref":"3395"}},{"type":"Feature","geometry":{"type":"Point","coordinates":[72.9758203,19.2393266]},"properties":{"name":"Mulla Bagh","position":12,"ref":"3396"}},{"type":"Feature","geometry":{"type":"Point","coordinates":[72.9762868,19.2352853]},"properties":{"name":"Manpada","position":13,"ref":"3397"}},{"type":"Feature","geometry":{"type":"Point","coordinates":[72.9768603,19.2301958]},"properties":{"name":"Lokim Company / R Mall","position":14,"ref":"3398"}},{"type":"Feature","geometry":{"type":"Point","coordinates":[72.977617,19.2239242]},"properties":{"name":"Tattvagyan Vidyapeeth","position":15,"ref":"3399"}},{"type":"Feature","geometry":{"type":"Point","coordinates":[72.9779877,19.2208019]},"properties":{"name":"Kapurbawdi","position":16,"ref":"3400"}},{"type":"Feature","geometry":{"type":"Point","coordinates":[72.9781363,19.2157382]},"properties":{"name":"Ashapura Mandir","position":17,"ref":"3401"}},{"type":"Feature","geometry":{"type":"Point","coordinates":[72.9779939,19.214315]},"properties":{"name":"Majiwada","position":18,"ref":"3402"}},{"type":"Feature","geometry":{"type":"Point","coordinates":[72.9745893,19.2096909]},"properties":{"name":"Siddhivinayak Tower","position":19,"ref":"3403"}},{"type":"Feature","geometry":{"type":"Point","coordinates":[72.9725289,19.2076758]},"properties":{"name":"Flower Valley","position":20,"ref":"3404"}},{"type":"Feature","geometry":{"type":"Point","coordinates":[72.9687325,19.2040495]},"properties":{"name":"Cadbury Juction","position":21,"ref":"3405"}},{"type":"Feature","geometry":{"type":"Point","coordinates":[72.9634313,19.1988475]},"properties":{"name":"Nitin Company","position":22,"ref":"3406"}},{"type":"Feature","geometry":{"type":"Point","coordinates":[72.9626149,19.1956099]},"properties":{"name":"Louiswadi","position":23,"ref":"3407"}},{"type":"Feature","geometry":{"type":"Point","coordinates":[72.9637004,19.1886402]},"properties":{"name":"Highway Darshan Society","position":24,"ref":"3408"}},{"type":"Feature","geometry":{"type":"Point","coordinates":[72.9644593,19.1890235]},"properties":{"name":"Forest Office","position":25,"ref":"3409"}},{"type":"Feature","geometry":{"type":"Point","coordinates":[72.9674338,19.1914429]},"properties":{"name":"Hari Niwas","position":26,"ref":"3410"}},{"type":"Feature","geometry":{"type":"Point","coordinates":[72.9686447,19.1873699]},"properties":{"name":"Ice Factory","position":27,"ref":"3411"}},{"type":"Feature","geometry":{"type":"Point","coordinates":[72.9717314,19.1876766]},"properties":{"name":"A.K. Joshi Vidyalaya","position":28,"ref":"3412"}},{"type":"Feature","geometry":{"type":"Point","coordinates":[72.9746779,19.1887806]},"properties":{"name":"Gaondevi","position":29,"ref":"3413"}},{"type":"Feature","geometry":{"type":"Point","coordinates":[72.9772106,19.1871527]},"properties":{"name":"Thane Station West SATIS","position":30,"ref":"3357"}}]}