{"type":"FeatureCollection","features":[{"type":"Feature","geometry":{"type":"Point","coordinates":[72.9580462,19.1738396]},"properties":{"name":"Mulund Station (W)","position":0,"ref":"993"}},{"type":"Feature","geometry":{"type":"Point","coordinates":[72.953172,19.176372]},"properties":{"name":"Vandana Hotel","position":1,"ref":"994"}},{"type":"Feature","geometry":{"type":"Point","coordinates":[72.9505563,19.1786105]},"properties":{"name":"Dnyan Sarita College","position":2,"ref":"995"}},{"type":"Feature","geometry":{"type":"Point","coordinates":[72.9452857,19.1791996]},"properties":{"name":"Kamgar Hospital Mulund","position":3,"ref":"996"}},{"type":"Feature","geometry":{"type":"Point","coordinates":[72.9483559,19.1833024]},"properties":{"name":"Santoshi Mata Mandir","position":4,"ref":"997"}},{"type":"Feature","geometry":{"type":"Point","coordinates":[72.9543287,19.1844874]},"properties":{"name":"Mulund Check Naka","position":5,"ref":"998"}},{"type":"Feature","geometry":{"type":"Point","coordinates":[72.9551506,19.1874057]},"properties":{"name":"Automatic Company","position":6,"ref":"999"}},{"type":"Feature","geometry":{"type":"Point","coordinates":[72.9552659,19.1910981]},"properties":{"name":"M.I.D.C","position":7,"ref":"1000"}},{"type":"Feature","geometry":{"type":"Point","coordinates":[72.9538549,19.1933951]},"properties":{"name":"Road No 16","position":8,"ref":"1001"}},{"type":"Feature","geometry":{"type":"Point","coordinates":[72.954597,19.195376]},"properties":{"name":"Bradma Compound","position":9,"ref":"1002"}},{"type":"Feature","geometry":{"type":"Point","coordinates":[72.9557187,19.1975944]},"properties":{"name":"Ambika Nagar","position":10,"ref":"1003"}},{"type":"Feature","geometry":{"type":"Point","coordinates":[72.9537004,19.2025601]},"properties":{"name":"Jai Bhawani Nagar","position":11,"ref":"1004"}},{"type":"Feature","geometry":{"type":"Point","coordinates":[72.954238,19.206178]},"properties":{"name":"Sawarkar Nagar","position":12,"ref":"1005"}},{"type":"Feature","geometry":{"type":"Point","coordinates":[72.9569332,19.2071149]},"properties":{"name":"Aai Mata Mandir","position":13,"ref":"1006"}},{"type":"Feature","geometry":{"type":"Point","coordinates":[72.9579714,19.2079385]},"properties":{"name":"Runwal Plaza","position":14,"ref":"1007"}},{"type":"Feature","geometry":{"type":"Point","coordinates":[72.9612848,19.2093207]},"properties":{"name":"Kores Nakshtra","position":15,"ref":"1008"}},{"type":"Feature","geometry":{"type":"Point","coordinates":[72.9618576,19.2099531]},"properties":{"name":"Vartak Nagar Naka","position":16,"ref":"1009"}},{"type":"Feature","geometry":{"type":"Point","coordinates":[72.9597028,19.2125986]},"properties":{"name":"Building No 3","position":17,"ref":"1010"}},{"type":"Feature","geometry":{"type":"Point","coordinates":[72.9591433,19.2133834]},"properties":{"name":"Shastri Nagar","position":18,"ref":"1011"}},{"type":"Feature","geometry":{"type":"Point","coordinates":[72.9579659,19.2147441]},"properties":{"name":"Devdaya Nagar","position":19,"ref":"1012"}},{"type":"Feature","geometry":{"type":"Point","coordinates":[72.9563031,19.2156669]},"properties":{"name":"Shivai Nagar","position":20,"ref":"1013"}},{"type":"Feature","geometry":{"type":"Point","coordinates":[72.9534712,19.2178392]},"properties":{"name":"Khandelwal Estate","position":21,"ref":"1014"}},{"type":"Feature","geometry":{"type":"Point","coordinates":[72.9527859,19.2185203]},"properties":{"name":"Bhu Kendra","position":22,"ref":"1015"}},{"type":"Feature","geometry":{"type":"Point","coordinates":[72.9536103,19.2205541]},"properties":{"name":"Upvan Talav","position":23,"ref":"1016"}},{"type":"Feature","geometry":{"type":"Point","coordinates":[72.9587008,19.2250817]},"properties":{"name":"Gawand Baug","position":24,"ref":"1017"}},{"type":"Feature","geometry":{"type":"Point","coordinates":[72.9583736,19.2216573]},"properties":{"name":"Kokanipada","position":25,"ref":"1018"}},{"type":"Feature","geometry":{"type":"Point","coordinates":[72.9618243,19.2204076]},"properties":{"name":"Bethany Hospital","position":26,"ref":"1019"}},{"type":"Feature","geometry":{"type":"Point","coordinates":[72.9702769,19.2183398]},"properties":{"name":"Gandhi Nagar","position":27,"ref":"1020"}},{"type":"Feature","geometry":{"type":"Point","coordinates":[72.9701741,19.2202504]},"properties":{"name":"Jawahar Nagar","position":28,"ref":"1021"}},{"type":"Feature","geometry":{"type":"Point","coordinates":[72.9698141,19.221862]},"properties":{"name":"Vasant Vihar","position":29,"ref":"1022"}},{"type":"Feature","geometry":{"type":"Point","coordinates":[72.9696892,19.2246621]},"properties":{"name":"Lok Puram","position":30,"ref":"1023"}},{"type":"Feature","geometry":{"type":"Point","coordinates":[72.9695615,19.2279324]},"properties":{"name":"Hiranandani Meadows","position":31,"ref":"1024"}},{"type":"Feature","geometry":{"type":"Point","coordinates":[72.9661058,19.2288882]},"properties":{"name":"Pawar Nagar","position":32,"ref":"1025"}}]}