{"type":"FeatureCollection","features":[{"type":"Feature","geometry":{"type":"Point","coordinates":[73.01176833,19.204125]},"properties":{"name":"Gholai Nagar","position":0,"ref":"3179"}},{"type":"Feature","geometry":{"type":"Point","coordinates":[73.00968,19.20422167]},"properties":{"name":"Rameshwar Society","position":1,"ref":"3180"}},{"type":"Feature","geometry":{"type":"Point","coordinates":[73.007225,19.203375]},"properties":{"name":"Indira Nagar","position":2,"ref":"3181"}},{"type":"Feature","geometry":{"type":"Point","coordinates":[73.00524167,19.20189333]},"properties":{"name":"Anand Vihar","position":3,"ref":"3182"}},{"type":"Feature","geometry":{"type":"Point","coordinates":[73.0038738,19.2006383]},"properties":{"name":"Kharegaon Fatak","position":4,"ref":"3183"}},{"type":"Feature","geometry":{"type":"Point","coordinates":[72.998855,19.19635333]},"properties":{"name":"Kalwa Railway Station","position":5,"ref":"3173"}}]}