{"type":"FeatureCollection","features":[{"type":"Feature","geometry":{"type":"Point","coordinates":[72.9793363,19.1886542]},"properties":{"name":"Chendani Koliwada","position":0,"ref":"2647"}},{"type":"Feature","geometry":{"type":"Point","coordinates":[72.9805364,19.1915527]},"properties":{"name":"Dadoji Konddev Stadium","position":1,"ref":"2648"}},{"type":"Feature","geometry":{"type":"Point","coordinates":[72.9825634,19.193954]},"properties":{"name":"Mahagiri Koliwada","position":2,"ref":"3343"}},{"type":"Feature","geometry":{"type":"Point","coordinates":[72.9835308,19.1966458]},"properties":{"name":"Court Naka","position":3,"ref":"3344"}},{"type":"Feature","geometry":{"type":"Point","coordinates":[72.9870879,19.1952082]},"properties":{"name":"Kalwa Naka","position":4,"ref":"3345"}},{"type":"Feature","geometry":{"type":"Point","coordinates":[72.9953148,19.1988286]},"properties":{"name":"Sukur Park","position":5,"ref":"3346"}},{"type":"Feature","geometry":{"type":"Point","coordinates":[72.9986343,19.2004779]},"properties":{"name":"Datta Wadi","position":6,"ref":"3347"}},{"type":"Feature","geometry":{"type":"Point","coordinates":[73.001356,19.2018148]},"properties":{"name":"Kharegaon Naka","position":7,"ref":"3348"}},{"type":"Feature","geometry":{"type":"Point","coordinates":[73.0059071,19.2036403]},"properties":{"name":"Prem Nagar","position":8,"ref":"3349"}},{"type":"Feature","geometry":{"type":"Point","coordinates":[73.0070128,19.2049039]},"properties":{"name":"Raj Park","position":9,"ref":"3350"}},{"type":"Feature","geometry":{"type":"Point","coordinates":[73.0083244,19.2057814]},"properties":{"name":"Parsik Nagar","position":10,"ref":"3351"}},{"type":"Feature","geometry":{"type":"Point","coordinates":[73.0091921,19.2062797]},"properties":{"name":"Vimal Nagar","position":11,"ref":"3352"}},{"type":"Feature","geometry":{"type":"Point","coordinates":[73.0097656,19.2067073]},"properties":{"name":"Vastu Anand","position":12,"ref":"3353"}},{"type":"Feature","geometry":{"type":"Point","coordinates":[73.011738,19.2081045]},"properties":{"name":"Subhash Tower","position":13,"ref":"3354"}},{"type":"Feature","geometry":{"type":"Point","coordinates":[73.0138436,19.2095182]},"properties":{"name":"Sainath Nagar","position":14,"ref":"3355"}},{"type":"Feature","geometry":{"type":"Point","coordinates":[73.0167022,19.2101651]},"properties":{"name":"Reti Bunder Circle","position":15,"ref":"3356"}}]}