{"type":"FeatureCollection","features":[{"type":"Feature","geometry":{"type":"Point","coordinates":[72.9580377,19.1738399]},"properties":{"name":"Mulund Station (W)","position":0,"ref":"2253"}},{"type":"Feature","geometry":{"type":"Point","coordinates":[72.9505403,19.1786166]},"properties":{"name":"Mulund Sonapur","position":1,"ref":"2254"}},{"type":"Feature","geometry":{"type":"Point","coordinates":[72.9452768,19.1792015]},"properties":{"name":"Kamagar Hospital Mulund","position":2,"ref":"2255"}},{"type":"Feature","geometry":{"type":"Point","coordinates":[72.9502628,19.1834763]},"properties":{"name":"Santoshi Mata Mandir","position":3,"ref":"2256"}},{"type":"Feature","geometry":{"type":"Point","coordinates":[72.9538672,19.1843131]},"properties":{"name":"Mulund Check Naka","position":4,"ref":"2257"}},{"type":"Feature","geometry":{"type":"Point","coordinates":[72.9551377,19.187406]},"properties":{"name":"Automatic Company","position":5,"ref":"2258"}},{"type":"Feature","geometry":{"type":"Point","coordinates":[72.9552461,19.1910988]},"properties":{"name":"Passport Office / M.I.D.C","position":6,"ref":"2259"}},{"type":"Feature","geometry":{"type":"Point","coordinates":[72.9538552,19.1933849]},"properties":{"name":"Road No 16","position":7,"ref":"2260"}},{"type":"Feature","geometry":{"type":"Point","coordinates":[72.9549691,19.1960345]},"properties":{"name":"Bradma Compound","position":8,"ref":"2261"}},{"type":"Feature","geometry":{"type":"Point","coordinates":[72.955701,19.1976019]},"properties":{"name":"Ambika Nagar","position":9,"ref":"2262"}},{"type":"Feature","geometry":{"type":"Point","coordinates":[72.9541648,19.1993897]},"properties":{"name":"Agriculture","position":10,"ref":"2263"}},{"type":"Feature","geometry":{"type":"Point","coordinates":[72.9536774,19.2025604]},"properties":{"name":"Jai Bhawani Nagar","position":11,"ref":"2264"}},{"type":"Feature","geometry":{"type":"Point","coordinates":[72.953992,19.203571]},"properties":{"name":"Kamgar Hospital","position":12,"ref":"1245"}},{"type":"Feature","geometry":{"type":"Point","coordinates":[72.9540995,19.2058231]},"properties":{"name":"Sawarkar Nagar","position":13,"ref":"2266"}},{"type":"Feature","geometry":{"type":"Point","coordinates":[72.9522786,19.2093577]},"properties":{"name":"Lokmanya Nagar","position":14,"ref":"1313"}},{"type":"Feature","geometry":{"type":"Point","coordinates":[72.9546636,19.2078418]},"properties":{"name":"Yashodhan Nagar","position":15,"ref":"2267"}}]}