{"type":"FeatureCollection","features":[{"type":"Feature","geometry":{"type":"Point","coordinates":[72.956367,19.215953]},"properties":{"name":"Shivai Nagar","position":0,"ref":"125"}},{"type":"Feature","geometry":{"type":"Point","coordinates":[72.957765,19.215137]},"properties":{"name":"Devdaya Nagar","position":1,"ref":"126"}},{"type":"Feature","geometry":{"type":"Point","coordinates":[72.95919,19.213652]},"properties":{"name":"S T Juna Thamba / Shastri Nagar Naka","position":2,"ref":"127"}},{"type":"Feature","geometry":{"type":"Point","coordinates":[72.960352,19.212253]},"properties":{"name":"Building No. 3","position":3,"ref":"128"}},{"type":"Feature","geometry":{"type":"Point","coordinates":[72.961643,19.210653]},"properties":{"name":"Vartak Nagar Naka","position":4,"ref":"129"}},{"type":"Feature","geometry":{"type":"Point","coordinates":[72.965087,19.20746]},"properties":{"name":"J K Gram","position":5,"ref":"130"}},{"type":"Feature","geometry":{"type":"Point","coordinates":[72.967118,19.205703]},"properties":{"name":"Cadbury Company","position":6,"ref":"131"}},{"type":"Feature","geometry":{"type":"Point","coordinates":[72.969558,19.204362]},"properties":{"name":"Pujani Estate","position":7,"ref":"132"}},{"type":"Feature","geometry":{"type":"Point","coordinates":[72.971685,19.203527]},"properties":{"name":"Khopat","position":8,"ref":"133"}},{"type":"Feature","geometry":{"type":"Point","coordinates":[72.9754576,19.2008008]},"properties":{"name":"New Shakti Mill","position":9,"ref":"134"}},{"type":"Feature","geometry":{"type":"Point","coordinates":[72.97795,19.199148]},"properties":{"name":"Civil Hospital","position":10,"ref":"135"}},{"type":"Feature","geometry":{"type":"Point","coordinates":[72.979892,19.197958]},"properties":{"name":"Central Maidan","position":11,"ref":"136"}},{"type":"Feature","geometry":{"type":"Point","coordinates":[72.978538,19.197115]},"properties":{"name":"Court Naka","position":12,"ref":"137"}},{"type":"Feature","geometry":{"type":"Point","coordinates":[72.977923,19.19473]},"properties":{"name":"Jambhali Naka","position":13,"ref":"138"}},{"type":"Feature","geometry":{"type":"Point","coordinates":[72.976106,19.186713]},"properties":{"name":"Thane Station West SATIS","position":14,"ref":"139"}}]}