{"type":"FeatureCollection","features":[{"type":"Feature","geometry":{"type":"Point","coordinates":[72.976106,19.186713]},"properties":{"name":"Thane Station West SATIS","position":0,"ref":"733"}},{"type":"Feature","geometry":{"type":"Point","coordinates":[72.9717206,19.1876022]},"properties":{"name":"A.K. Joshi Vidyalaya","position":1,"ref":"734"}},{"type":"Feature","geometry":{"type":"Point","coordinates":[72.9676133,19.1874328]},"properties":{"name":"Shahu Maharaj Market","position":2,"ref":"735"}},{"type":"Feature","geometry":{"type":"Point","coordinates":[72.9676872,19.1904649]},"properties":{"name":"Hari Niwas","position":3,"ref":"736"}},{"type":"Feature","geometry":{"type":"Point","coordinates":[72.9646941,19.1889277]},"properties":{"name":"Forest Office","position":4,"ref":"737"}},{"type":"Feature","geometry":{"type":"Point","coordinates":[72.9631779,19.1893702]},"properties":{"name":"Highway Darshan Society","position":5,"ref":"738"}},{"type":"Feature","geometry":{"type":"Point","coordinates":[72.9623279,19.1956528]},"properties":{"name":"Louiswadi","position":6,"ref":"739"}},{"type":"Feature","geometry":{"type":"Point","coordinates":[72.9628955,19.1991437]},"properties":{"name":"Nitin Company","position":7,"ref":"740"}},{"type":"Feature","geometry":{"type":"Point","coordinates":[72.9679291,19.2039712]},"properties":{"name":"Cadbury Juction","position":8,"ref":"741"}},{"type":"Feature","geometry":{"type":"Point","coordinates":[72.9668404,19.2055565]},"properties":{"name":"Cadbury Company","position":9,"ref":"742"}},{"type":"Feature","geometry":{"type":"Point","coordinates":[72.9641441,19.2079805]},"properties":{"name":"J K Gram","position":10,"ref":"743"}},{"type":"Feature","geometry":{"type":"Point","coordinates":[72.9618433,19.2099591]},"properties":{"name":"Vartak Nagar Naka","position":11,"ref":"744"}},{"type":"Feature","geometry":{"type":"Point","coordinates":[72.959689,19.2126051]},"properties":{"name":"Building No 3","position":12,"ref":"745"}},{"type":"Feature","geometry":{"type":"Point","coordinates":[72.9591182,19.213386]},"properties":{"name":"S T Juna Thamba / Shastri Nagar","position":13,"ref":"746"}},{"type":"Feature","geometry":{"type":"Point","coordinates":[72.9579401,19.2147698]},"properties":{"name":"Devdaya Nagar","position":14,"ref":"747"}},{"type":"Feature","geometry":{"type":"Point","coordinates":[72.9586613,19.2167476]},"properties":{"name":"Cosmos Paradise","position":15,"ref":"748"}},{"type":"Feature","geometry":{"type":"Point","coordinates":[72.9601212,19.2202252]},"properties":{"name":"Lakshmi Narayan Residency","position":16,"ref":"749"}},{"type":"Feature","geometry":{"type":"Point","coordinates":[72.9618231,19.2204197]},"properties":{"name":"Bethany Hospital","position":17,"ref":"750"}},{"type":"Feature","geometry":{"type":"Point","coordinates":[72.9604742,19.2209675]},"properties":{"name":"Devidayal Company","position":18,"ref":"751"}},{"type":"Feature","geometry":{"type":"Point","coordinates":[72.9636343,19.2200723]},"properties":{"name":"Ashiyan Cable","position":19,"ref":"752"}},{"type":"Feature","geometry":{"type":"Point","coordinates":[72.9663004,19.2219572]},"properties":{"name":"Vasant Vihar School","position":20,"ref":"753"}},{"type":"Feature","geometry":{"type":"Point","coordinates":[72.9645844,19.2226341]},"properties":{"name":"HDFC Bank Siddhachal","position":21,"ref":"754"}},{"type":"Feature","geometry":{"type":"Point","coordinates":[72.9650517,19.2258089]},"properties":{"name":"Siddhachal Society","position":22,"ref":"755"}}]}