{"type":"FeatureCollection","features":[{"type":"Feature","geometry":{"type":"Point","coordinates":[72.9580323,19.1738429]},"properties":{"name":"Mulund Station (W)","position":0,"ref":"2863"}},{"type":"Feature","geometry":{"type":"Point","coordinates":[72.9536832,19.1758641]},"properties":{"name":"Pach Rasta Devidayal Road","position":1,"ref":"2864"}},{"type":"Feature","geometry":{"type":"Point","coordinates":[72.9505452,19.1786226]},"properties":{"name":"Gyan Sarita Sada","position":2,"ref":"2865"}},{"type":"Feature","geometry":{"type":"Point","coordinates":[72.9452725,19.1792001]},"properties":{"name":"Kamagar Hospital Mulund","position":3,"ref":"2866"}},{"type":"Feature","geometry":{"type":"Point","coordinates":[72.9502099,19.1835119]},"properties":{"name":"Santoshi Mata Mandir","position":4,"ref":"2867"}},{"type":"Feature","geometry":{"type":"Point","coordinates":[72.9543262,19.1845166]},"properties":{"name":"Mulund Check Naka","position":5,"ref":"2868"}},{"type":"Feature","geometry":{"type":"Point","coordinates":[72.9551423,19.1874053]},"properties":{"name":"Automatic Company","position":6,"ref":"2869"}},{"type":"Feature","geometry":{"type":"Point","coordinates":[72.9552546,19.1910975]},"properties":{"name":"Passport Office / M.I.D.C","position":7,"ref":"2870"}},{"type":"Feature","geometry":{"type":"Point","coordinates":[72.9538542,19.19339]},"properties":{"name":"Road No 16","position":8,"ref":"2871"}},{"type":"Feature","geometry":{"type":"Point","coordinates":[72.95492833,19.196015]},"properties":{"name":"Bradma Compound","position":9,"ref":"2872"}},{"type":"Feature","geometry":{"type":"Point","coordinates":[72.9557004,19.1976062]},"properties":{"name":"Ambika Nagar","position":10,"ref":"2873"}},{"type":"Feature","geometry":{"type":"Point","coordinates":[72.9541783,19.1993806]},"properties":{"name":"Agriculture","position":11,"ref":"2874"}},{"type":"Feature","geometry":{"type":"Point","coordinates":[72.9536804,19.2025606]},"properties":{"name":"Jai Bhawani Nagar","position":12,"ref":"2875"}},{"type":"Feature","geometry":{"type":"Point","coordinates":[72.9539768,19.2035742]},"properties":{"name":"Kamgar Hospital","position":13,"ref":"2876"}},{"type":"Feature","geometry":{"type":"Point","coordinates":[72.9541607,19.205921]},"properties":{"name":"Savarkar Nagar Naka","position":14,"ref":"2877"}},{"type":"Feature","geometry":{"type":"Point","coordinates":[72.9546666,19.2078416]},"properties":{"name":"Yashodhan Nagar","position":15,"ref":"2878"}},{"type":"Feature","geometry":{"type":"Point","coordinates":[72.9569319,19.2071208]},"properties":{"name":"Aai Mata Mandir Chowk","position":16,"ref":"2879"}},{"type":"Feature","geometry":{"type":"Point","coordinates":[72.9579684,19.2079485]},"properties":{"name":"Runwal Plaza","position":17,"ref":"2880"}},{"type":"Feature","geometry":{"type":"Point","coordinates":[72.9612842,19.2093138]},"properties":{"name":"Koras Company","position":18,"ref":"2881"}},{"type":"Feature","geometry":{"type":"Point","coordinates":[72.9618474,19.2099527]},"properties":{"name":"Vartak Nagar Naka","position":19,"ref":"2882"}},{"type":"Feature","geometry":{"type":"Point","coordinates":[72.9601061,19.2121316]},"properties":{"name":"Building No 3","position":20,"ref":"2883"}},{"type":"Feature","geometry":{"type":"Point","coordinates":[72.9591395,19.2133839]},"properties":{"name":"S T Juna Thamba / Shastri Nagar","position":21,"ref":"2884"}},{"type":"Feature","geometry":{"type":"Point","coordinates":[72.9579501,19.2147434]},"properties":{"name":"Devdaya Nagar","position":22,"ref":"2885"}},{"type":"Feature","geometry":{"type":"Point","coordinates":[72.9586666,19.2167487]},"properties":{"name":"Cosmos Paradise","position":23,"ref":"2886"}},{"type":"Feature","geometry":{"type":"Point","coordinates":[72.9598138,19.2194752]},"properties":{"name":"Laxmi Narayan Society","position":24,"ref":"2887"}},{"type":"Feature","geometry":{"type":"Point","coordinates":[72.961824,19.2204127]},"properties":{"name":"Bethany Hospital","position":25,"ref":"2888"}},{"type":"Feature","geometry":{"type":"Point","coordinates":[72.964566,19.2198566]},"properties":{"name":"Asian Cable","position":26,"ref":"2889"}},{"type":"Feature","geometry":{"type":"Point","coordinates":[72.9698059,19.2218615]},"properties":{"name":"Vasant Vihar","position":27,"ref":"2890"}},{"type":"Feature","geometry":{"type":"Point","coordinates":[72.9697667,19.2226363]},"properties":{"name":"Mhada Vasahat","position":28,"ref":"2891"}},{"type":"Feature","geometry":{"type":"Point","coordinates":[72.9696791,19.2246616]},"properties":{"name":"Lok Puram","position":29,"ref":"2892"}},{"type":"Feature","geometry":{"type":"Point","coordinates":[72.9695491,19.2279323]},"properties":{"name":"Edenwood","position":30,"ref":"2893"}},{"type":"Feature","geometry":{"type":"Point","coordinates":[72.97007,19.229755]},"properties":{"name":"Maharashtra Nagar","position":31,"ref":"2894"}},{"type":"Feature","geometry":{"type":"Point","coordinates":[72.9697769,19.2325896]},"properties":{"name":"Khewra Circle","position":32,"ref":"2895"}},{"type":"Feature","geometry":{"type":"Point","coordinates":[72.9702296,19.2366209]},"properties":{"name":"Dharamvir Nagar / Happy Valley Circle","position":33,"ref":"2896"}},{"type":"Feature","geometry":{"type":"Point","coordinates":[72.9727562,19.2364015]},"properties":{"name":"Sahayog Society","position":34,"ref":"2897"}},{"type":"Feature","geometry":{"type":"Point","coordinates":[72.975892,19.2349977]},"properties":{"name":"Manpada","position":35,"ref":"2898"}},{"type":"Feature","geometry":{"type":"Point","coordinates":[72.9754845,19.2390529]},"properties":{"name":"Mulla Bagh","position":36,"ref":"2899"}},{"type":"Feature","geometry":{"type":"Point","coordinates":[72.9755656,19.2410059]},"properties":{"name":"Azad Nagar Naka","position":37,"ref":"2900"}},{"type":"Feature","geometry":{"type":"Point","coordinates":[72.977156,19.2408148]},"properties":{"name":"St. Xaviers School","position":38,"ref":"2901"}},{"type":"Feature","geometry":{"type":"Point","coordinates":[72.9805502,19.2394442]},"properties":{"name":"Azad Nagar","position":39,"ref":"2902"}},{"type":"Feature","geometry":{"type":"Point","coordinates":[72.9815396,19.2413287]},"properties":{"name":"Brahmand Phase 1,2","position":40,"ref":"2903"}},{"type":"Feature","geometry":{"type":"Point","coordinates":[72.9827333,19.2434466]},"properties":{"name":"Swastik Park","position":41,"ref":"2904"}},{"type":"Feature","geometry":{"type":"Point","coordinates":[72.9835657,19.2450211]},"properties":{"name":"Brahmand Phase 5","position":42,"ref":"2905"}},{"type":"Feature","geometry":{"type":"Point","coordinates":[72.9846915,19.2466267]},"properties":{"name":"Brahmand Phase 6","position":43,"ref":"2906"}},{"type":"Feature","geometry":{"type":"Point","coordinates":[72.9861405,19.2474907]},"properties":{"name":"Brahmand","position":44,"ref":"2907"}}]}