{"type":"FeatureCollection","features":[{"type":"Feature","geometry":{"type":"Point","coordinates":[72.9793363,19.1886542]},"properties":{"name":"Chendani Koliwada","position":0,"ref":"2647"}},{"type":"Feature","geometry":{"type":"Point","coordinates":[72.9805364,19.1915527]},"properties":{"name":"Dadoji Konddev Stadium","position":1,"ref":"2648"}},{"type":"Feature","geometry":{"type":"Point","coordinates":[72.9828997,19.1949904]},"properties":{"name":"Mahagiri Koliwada","position":2,"ref":"3650"}},{"type":"Feature","geometry":{"type":"Point","coordinates":[72.9835308,19.1966458]},"properties":{"name":"Court Naka","position":3,"ref":"3344"}},{"type":"Feature","geometry":{"type":"Point","coordinates":[72.9870879,19.1952082]},"properties":{"name":"Kalwa Naka","position":4,"ref":"3345"}},{"type":"Feature","geometry":{"type":"Point","coordinates":[72.9907915,19.1968525]},"properties":{"name":"Manisha Nagar","position":5,"ref":"3651"}},{"type":"Feature","geometry":{"type":"Point","coordinates":[72.9938113,19.1980701]},"properties":{"name":"Sahyadri Society","position":6,"ref":"3652"}},{"type":"Feature","geometry":{"type":"Point","coordinates":[72.9953153,19.1988266]},"properties":{"name":"Sukur Park","position":7,"ref":"3653"}},{"type":"Feature","geometry":{"type":"Point","coordinates":[72.9986342,19.2004761]},"properties":{"name":"Datta Wadi","position":8,"ref":"3654"}},{"type":"Feature","geometry":{"type":"Point","coordinates":[73.0013554,19.2018125]},"properties":{"name":"Kharegaon Naka","position":9,"ref":"3655"}},{"type":"Feature","geometry":{"type":"Point","coordinates":[73.0059071,19.2036403]},"properties":{"name":"Prem Nagar","position":10,"ref":"3349"}},{"type":"Feature","geometry":{"type":"Point","coordinates":[73.007013,19.2048993]},"properties":{"name":"Raj Park","position":11,"ref":"3656"}},{"type":"Feature","geometry":{"type":"Point","coordinates":[73.0091921,19.2062797]},"properties":{"name":"Vimal Nagar","position":12,"ref":"3352"}},{"type":"Feature","geometry":{"type":"Point","coordinates":[73.0097662,19.2067066]},"properties":{"name":"Vastu Anand","position":13,"ref":"3657"}},{"type":"Feature","geometry":{"type":"Point","coordinates":[73.0117374,19.2081035]},"properties":{"name":"Subhash Tower","position":14,"ref":"3658"}},{"type":"Feature","geometry":{"type":"Point","coordinates":[73.0128182,19.208979]},"properties":{"name":"Amrut Angan","position":15,"ref":"3659"}},{"type":"Feature","geometry":{"type":"Point","coordinates":[73.0138435,19.2095167]},"properties":{"name":"Sainath Nagar","position":16,"ref":"3660"}},{"type":"Feature","geometry":{"type":"Point","coordinates":[73.0157018,19.2106232]},"properties":{"name":"Reti Bunder Circle","position":17,"ref":"3661"}},{"type":"Feature","geometry":{"type":"Point","coordinates":[73.0178124,19.2070791]},"properties":{"name":"Retibunder Number 3","position":18,"ref":"3662"}},{"type":"Feature","geometry":{"type":"Point","coordinates":[73.0199267,19.2034459]},"properties":{"name":"Retibunder Number 2/Ranna Nagar","position":19,"ref":"3663"}},{"type":"Feature","geometry":{"type":"Point","coordinates":[73.0223813,19.2003933]},"properties":{"name":"Retibunder Number 1","position":20,"ref":"3664"}},{"type":"Feature","geometry":{"type":"Point","coordinates":[73.0229105,19.1930965]},"properties":{"name":"Dattu Wadi Mumbra/Sainath Hospital","position":21,"ref":"3665"}},{"type":"Feature","geometry":{"type":"Point","coordinates":[73.022823,19.1900778]},"properties":{"name":"Mumbra Railway Station","position":22,"ref":"3666"}},{"type":"Feature","geometry":{"type":"Point","coordinates":[73.0215454,19.187431]},"properties":{"name":"Mumbra Prabhat Office","position":23,"ref":"3667"}},{"type":"Feature","geometry":{"type":"Point","coordinates":[73.0213049,19.1857956]},"properties":{"name":"Lalit Clinic","position":24,"ref":"3668"}},{"type":"Feature","geometry":{"type":"Point","coordinates":[73.0225134,19.1835416]},"properties":{"name":"Mumbra Police Station","position":25,"ref":"3669"}},{"type":"Feature","geometry":{"type":"Point","coordinates":[73.0226399,19.1802276]},"properties":{"name":"Sanjay Nagar/Shiv Sena Office","position":26,"ref":"3670"}},{"type":"Feature","geometry":{"type":"Point","coordinates":[73.0228079,19.1773891]},"properties":{"name":"Mumbra Shiv Mandir","position":27,"ref":"3671"}},{"type":"Feature","geometry":{"type":"Point","coordinates":[73.0230946,19.174693]},"properties":{"name":"Amrut Nagar","position":28,"ref":"3672"}},{"type":"Feature","geometry":{"type":"Point","coordinates":[73.0236226,19.1719929]},"properties":{"name":"Kismat Colony","position":29,"ref":"3673"}},{"type":"Feature","geometry":{"type":"Point","coordinates":[73.0245763,19.1701116]},"properties":{"name":"Nashimat Colony","position":30,"ref":"3674"}},{"type":"Feature","geometry":{"type":"Point","coordinates":[73.025985,19.1679292]},"properties":{"name":"Almos Colony","position":31,"ref":"3675"}},{"type":"Feature","geometry":{"type":"Point","coordinates":[73.0271026,19.1664807]},"properties":{"name":"Kousa Gaon","position":32,"ref":"2378"}},{"type":"Feature","geometry":{"type":"Point","coordinates":[73.0284104,19.1645514]},"properties":{"name":"Kousa Jama Masjid","position":33,"ref":"3676"}},{"type":"Feature","geometry":{"type":"Point","coordinates":[73.028615,19.1634339]},"properties":{"name":"Millenium Hospital / Shimla Park","position":34,"ref":"3677"}},{"type":"Feature","geometry":{"type":"Point","coordinates":[73.029297,19.161642]},"properties":{"name":"Kalsekar College / K.V.K.","position":35,"ref":"3678"}},{"type":"Feature","geometry":{"type":"Point","coordinates":[73.0316498,19.1575129]},"properties":{"name":"Bharat Gears","position":36,"ref":"3679"}},{"type":"Feature","geometry":{"type":"Point","coordinates":[73.040224,19.1478887]},"properties":{"name":"Diwale/Bhandarli Gaon","position":37,"ref":"3680"}},{"type":"Feature","geometry":{"type":"Point","coordinates":[73.0404638,19.1477036]},"properties":{"name":"Shibli Nagar","position":38,"ref":"3681"}},{"type":"Feature","geometry":{"type":"Point","coordinates":[73.0406472,19.1475845]},"properties":{"name":"Swarvali Devi","position":39,"ref":"3682"}},{"type":"Feature","geometry":{"type":"Point","coordinates":[73.0454122,19.1437639]},"properties":{"name":"Shil Phata","position":40,"ref":"3683"}},{"type":"Feature","geometry":{"type":"Point","coordinates":[73.0471665,19.1437076]},"properties":{"name":"Kalyan Phata","position":41,"ref":"3684"}},{"type":"Feature","geometry":{"type":"Point","coordinates":[73.0516631,19.1474392]},"properties":{"name":"Chintamani Hotel / Jain Temple","position":42,"ref":"3685"}},{"type":"Feature","geometry":{"type":"Point","coordinates":[73.0550646,19.1499268]},"properties":{"name":"Mhatre Wadi / Patil Wadi","position":43,"ref":"3686"}},{"type":"Feature","geometry":{"type":"Point","coordinates":[73.0601915,19.1537408]},"properties":{"name":"Padle Gaon","position":44,"ref":"3687"}},{"type":"Feature","geometry":{"type":"Point","coordinates":[73.0640759,19.1566036]},"properties":{"name":"Khidkali Temple","position":45,"ref":"3688"}},{"type":"Feature","geometry":{"type":"Point","coordinates":[73.0674254,19.158929]},"properties":{"name":"Khirkali","position":46,"ref":"3603"}}]}