{"type":"FeatureCollection","features":[{"type":"Feature","geometry":{"type":"Point","coordinates":[72.976106,19.186713]},"properties":{"name":"Thane Station West SATIS","position":0,"ref":"1899"}},{"type":"Feature","geometry":{"type":"Point","coordinates":[72.9767117,19.1938]},"properties":{"name":"Talao Pali","position":1,"ref":"1900"}},{"type":"Feature","geometry":{"type":"Point","coordinates":[72.9772445,19.197103]},"properties":{"name":"Tembhi Naka","position":2,"ref":"1901"}},{"type":"Feature","geometry":{"type":"Point","coordinates":[72.9788235,19.1990735]},"properties":{"name":"Civil Hospital","position":3,"ref":"1902"}},{"type":"Feature","geometry":{"type":"Point","coordinates":[72.9792971,19.2012527]},"properties":{"name":"Police Line","position":4,"ref":"1903"}},{"type":"Feature","geometry":{"type":"Point","coordinates":[72.97871,19.2034264]},"properties":{"name":"Holy Cross School","position":5,"ref":"1904"}},{"type":"Feature","geometry":{"type":"Point","coordinates":[72.9771868,19.2073083]},"properties":{"name":"Castle Mill","position":6,"ref":"1905"}},{"type":"Feature","geometry":{"type":"Point","coordinates":[72.9770196,19.2093528]},"properties":{"name":"Gokul Nagar","position":7,"ref":"1906"}},{"type":"Feature","geometry":{"type":"Point","coordinates":[72.9771207,19.2108314]},"properties":{"name":"Muktai Nagar","position":8,"ref":"1907"}},{"type":"Feature","geometry":{"type":"Point","coordinates":[72.9773371,19.2144878]},"properties":{"name":"Majiwada Naka","position":9,"ref":"1908"}},{"type":"Feature","geometry":{"type":"Point","coordinates":[72.9777817,19.2162564]},"properties":{"name":"Ashapura Mandir","position":10,"ref":"1909"}},{"type":"Feature","geometry":{"type":"Point","coordinates":[72.9775215,19.2210925]},"properties":{"name":"Kapurbawdi","position":11,"ref":"1910"}},{"type":"Feature","geometry":{"type":"Point","coordinates":[72.9773098,19.223448]},"properties":{"name":"Tattvagyan Vidyapeeth","position":12,"ref":"1911"}},{"type":"Feature","geometry":{"type":"Point","coordinates":[72.97715833,19.22505667]},"properties":{"name":"Hyder Park Society","position":13,"ref":"1912"}},{"type":"Feature","geometry":{"type":"Point","coordinates":[72.9765503,19.2298501]},"properties":{"name":"Lokim Company / R Mall","position":14,"ref":"1913"}},{"type":"Feature","geometry":{"type":"Point","coordinates":[72.9758934,19.2349983]},"properties":{"name":"Manpada","position":15,"ref":"1914"}},{"type":"Feature","geometry":{"type":"Point","coordinates":[72.9754837,19.2390532]},"properties":{"name":"Mulla Bagh","position":16,"ref":"1915"}},{"type":"Feature","geometry":{"type":"Point","coordinates":[72.97553667,19.24095333]},"properties":{"name":"Azadnagar Naka","position":17,"ref":"1916"}},{"type":"Feature","geometry":{"type":"Point","coordinates":[72.9752877,19.2473513]},"properties":{"name":"Patli Pada","position":18,"ref":"1917"}},{"type":"Feature","geometry":{"type":"Point","coordinates":[72.9734168,19.2505149]},"properties":{"name":"Dongri Pada","position":19,"ref":"1918"}},{"type":"Feature","geometry":{"type":"Point","coordinates":[72.9736668,19.2561057]},"properties":{"name":"Vijay Nagari","position":20,"ref":"1919"}},{"type":"Feature","geometry":{"type":"Point","coordinates":[72.97468,19.2581221]},"properties":{"name":"Anunagar","position":21,"ref":"1920"}},{"type":"Feature","geometry":{"type":"Point","coordinates":[72.9761654,19.2589753]},"properties":{"name":"Vasant Leela","position":22,"ref":"1921"}},{"type":"Feature","geometry":{"type":"Point","coordinates":[72.9770962,19.2625299]},"properties":{"name":"Swastik Regalia","position":23,"ref":"1922"}},{"type":"Feature","geometry":{"type":"Point","coordinates":[72.979655,19.26483]},"properties":{"name":"Damyanti Smruti","position":24,"ref":"1923"}},{"type":"Feature","geometry":{"type":"Point","coordinates":[72.983151,19.2664452]},"properties":{"name":"Waghbil Gaon","position":25,"ref":"1924"}}]}