{"type":"FeatureCollection","features":[{"type":"Feature","geometry":{"type":"Point","coordinates":[72.9996008,19.2053265]},"properties":{"name":"Kharegaon","position":0,"ref":"297"}},{"type":"Feature","geometry":{"type":"Point","coordinates":[73.0015137,19.2031833]},"properties":{"name":"Kharegaon Pakhadi","position":1,"ref":"298"}},{"type":"Feature","geometry":{"type":"Point","coordinates":[73.0016773,19.2018079]},"properties":{"name":"Kharegaon Naka","position":2,"ref":"299"}},{"type":"Feature","geometry":{"type":"Point","coordinates":[72.9990685,19.2004784]},"properties":{"name":"Datta Wadi","position":3,"ref":"300"}},{"type":"Feature","geometry":{"type":"Point","coordinates":[72.9953519,19.1986825]},"properties":{"name":"Jyotiba Phule Nagar / Sukur Park","position":4,"ref":"301"}},{"type":"Feature","geometry":{"type":"Point","coordinates":[72.993574,19.1977618]},"properties":{"name":"Sahyadri Society","position":5,"ref":"302"}},{"type":"Feature","geometry":{"type":"Point","coordinates":[72.9917174,19.1970117]},"properties":{"name":"Manisha Nagar","position":6,"ref":"303"}},{"type":"Feature","geometry":{"type":"Point","coordinates":[72.9873946,19.1960977]},"properties":{"name":"Kalwa Naka","position":7,"ref":"304"}},{"type":"Feature","geometry":{"type":"Point","coordinates":[72.9831241,19.1972377]},"properties":{"name":"Kanhaji Agrh Chowk","position":8,"ref":"305"}},{"type":"Feature","geometry":{"type":"Point","coordinates":[72.9812272,19.1989464]},"properties":{"name":"R.T.O Thane","position":9,"ref":"306"}},{"type":"Feature","geometry":{"type":"Point","coordinates":[72.9799522,19.1979203]},"properties":{"name":"Central Maidan","position":10,"ref":"307"}},{"type":"Feature","geometry":{"type":"Point","coordinates":[72.9785806,19.1970637]},"properties":{"name":"Court Naka","position":11,"ref":"308"}},{"type":"Feature","geometry":{"type":"Point","coordinates":[72.97807,19.19516]},"properties":{"name":"Jambhali Naka","position":12,"ref":"309"}},{"type":"Feature","geometry":{"type":"Point","coordinates":[72.97691,19.192]},"properties":{"name":"Prabhat Cinema","position":13,"ref":"310"}},{"type":"Feature","geometry":{"type":"Point","coordinates":[72.976106,19.186713]},"properties":{"name":"Thane Station West SATIS","position":14,"ref":"311"}},{"type":"Feature","geometry":{"type":"Point","coordinates":[72.9717217,19.1876259]},"properties":{"name":"A.K. Joshi Vidyalaya","position":15,"ref":"312"}},{"type":"Feature","geometry":{"type":"Point","coordinates":[72.9676319,19.1878613]},"properties":{"name":"Shahu Maharaj Market","position":16,"ref":"313"}},{"type":"Feature","geometry":{"type":"Point","coordinates":[72.9678367,19.1904645]},"properties":{"name":"Hari Nivas","position":17,"ref":"314"}},{"type":"Feature","geometry":{"type":"Point","coordinates":[72.9646861,19.1889732]},"properties":{"name":"Forest Office","position":18,"ref":"315"}},{"type":"Feature","geometry":{"type":"Point","coordinates":[72.9626715,19.1876956]},"properties":{"name":"Teen Hath Naka","position":19,"ref":"316"}},{"type":"Feature","geometry":{"type":"Point","coordinates":[72.9611348,19.1866709]},"properties":{"name":"Johnson Company","position":20,"ref":"317"}},{"type":"Feature","geometry":{"type":"Point","coordinates":[72.9580158,19.1857777]},"properties":{"name":"Kashish Park","position":21,"ref":"318"}},{"type":"Feature","geometry":{"type":"Point","coordinates":[72.9565895,19.1856386]},"properties":{"name":"Mulund Check Naka","position":22,"ref":"319"}},{"type":"Feature","geometry":{"type":"Point","coordinates":[72.9553792,19.1877051]},"properties":{"name":"Automatic Company","position":23,"ref":"320"}},{"type":"Feature","geometry":{"type":"Point","coordinates":[72.9554124,19.1911586]},"properties":{"name":"M.I.D.C","position":24,"ref":"321"}},{"type":"Feature","geometry":{"type":"Point","coordinates":[72.9537607,19.1937014]},"properties":{"name":"Road No 16","position":25,"ref":"322"}},{"type":"Feature","geometry":{"type":"Point","coordinates":[72.9497668,19.1947254]},"properties":{"name":"Wagle Circle","position":26,"ref":"323"}},{"type":"Feature","geometry":{"type":"Point","coordinates":[72.9495759,19.1896321]},"properties":{"name":"Kisan Nagar","position":27,"ref":"324"}}]}