{"type":"FeatureCollection","features":[{"type":"Feature","geometry":{"type":"Point","coordinates":[72.9772101,19.1871381]},"properties":{"name":"Thane Station West SATIS","position":0,"ref":"2962"}},{"type":"Feature","geometry":{"type":"Point","coordinates":[72.97677,19.19367333]},"properties":{"name":"Jambli Naka","position":1,"ref":"2963"}},{"type":"Feature","geometry":{"type":"Point","coordinates":[72.9772351,19.1970953]},"properties":{"name":"Court Naka","position":2,"ref":"2964"}},{"type":"Feature","geometry":{"type":"Point","coordinates":[72.9788244,19.1990731]},"properties":{"name":"Civil Hospital","position":3,"ref":"2965"}},{"type":"Feature","geometry":{"type":"Point","coordinates":[72.979297,19.2012517]},"properties":{"name":"Police Line","position":4,"ref":"2966"}},{"type":"Feature","geometry":{"type":"Point","coordinates":[72.97871,19.2034259]},"properties":{"name":"Holly Cross School","position":5,"ref":"2967"}},{"type":"Feature","geometry":{"type":"Point","coordinates":[72.9799637,19.2030599]},"properties":{"name":"Rabodi","position":6,"ref":"2968"}}]}