{"type":"FeatureCollection","features":[{"type":"Feature","geometry":{"type":"Point","coordinates":[72.975421,19.18701]},"properties":{"name":"Thane Station West SATIS","position":0,"ref":"3706"}},{"type":"Feature","geometry":{"type":"Point","coordinates":[72.9767174,19.1937993]},"properties":{"name":"Talao Pali","position":1,"ref":"1269"}},{"type":"Feature","geometry":{"type":"Point","coordinates":[72.9772445,19.197103]},"properties":{"name":"Tembhi Naka","position":2,"ref":"1901"}},{"type":"Feature","geometry":{"type":"Point","coordinates":[72.9788234,19.19907]},"properties":{"name":"Civil Hospital","position":3,"ref":"1502"}},{"type":"Feature","geometry":{"type":"Point","coordinates":[72.9793004,19.2012519]},"properties":{"name":"Police Line","position":4,"ref":"3707"}},{"type":"Feature","geometry":{"type":"Point","coordinates":[72.9787147,19.2034268]},"properties":{"name":"Holly Cross School","position":5,"ref":"3708"}},{"type":"Feature","geometry":{"type":"Point","coordinates":[72.9771868,19.2073083]},"properties":{"name":"Castle Mill","position":6,"ref":"1905"}},{"type":"Feature","geometry":{"type":"Point","coordinates":[72.9770196,19.2093528]},"properties":{"name":"Gokul Nagar","position":7,"ref":"1906"}},{"type":"Feature","geometry":{"type":"Point","coordinates":[72.9771207,19.2108314]},"properties":{"name":"Muktai Nagar","position":8,"ref":"1907"}},{"type":"Feature","geometry":{"type":"Point","coordinates":[72.9773374,19.2144882]},"properties":{"name":"Majiwada Naka","position":9,"ref":"2194"}},{"type":"Feature","geometry":{"type":"Point","coordinates":[72.9799642,19.2178529]},"properties":{"name":"Kapurbawdi","position":10,"ref":"3709"}},{"type":"Feature","geometry":{"type":"Point","coordinates":[72.9811384,19.2180626]},"properties":{"name":"Chhabhaiya Park","position":11,"ref":"3710"}},{"type":"Feature","geometry":{"type":"Point","coordinates":[72.9833894,19.2185186]},"properties":{"name":"Yashaswi Nagar","position":12,"ref":"3711"}},{"type":"Feature","geometry":{"type":"Point","coordinates":[72.9844027,19.2191302]},"properties":{"name":"Vardhman Garden","position":13,"ref":"1281"}},{"type":"Feature","geometry":{"type":"Point","coordinates":[72.9865353,19.2199835]},"properties":{"name":"Colour Chem","position":14,"ref":"1590"}},{"type":"Feature","geometry":{"type":"Point","coordinates":[72.9895823,19.2214926]},"properties":{"name":"Balkum Naka","position":15,"ref":"3712"}},{"type":"Feature","geometry":{"type":"Point","coordinates":[72.9912165,19.2218411]},"properties":{"name":"Balkum Pada No 1","position":16,"ref":"3713"}},{"type":"Feature","geometry":{"type":"Point","coordinates":[72.9942555,19.2223298]},"properties":{"name":"Ashok Nagar","position":17,"ref":"1593"}},{"type":"Feature","geometry":{"type":"Point","coordinates":[72.9965679,19.2224096]},"properties":{"name":"Dadlani Park","position":18,"ref":"1594"}}]}