{"type":"FeatureCollection","features":[{"type":"Feature","geometry":{"type":"Point","coordinates":[72.9962946,19.2440627]},"properties":{"name":"Kolshet Trichapada","position":0,"ref":"824"}},{"type":"Feature","geometry":{"type":"Point","coordinates":[72.9919366,19.2401355]},"properties":{"name":"Air Force Station Kolshet","position":1,"ref":"825"}},{"type":"Feature","geometry":{"type":"Point","coordinates":[72.9907661,19.2387884]},"properties":{"name":"Kolshet Gaon","position":2,"ref":"826"}},{"type":"Feature","geometry":{"type":"Point","coordinates":[72.9895935,19.2364548]},"properties":{"name":"Boringer","position":3,"ref":"827"}},{"type":"Feature","geometry":{"type":"Point","coordinates":[72.9887258,19.2350148]},"properties":{"name":"Novartis","position":4,"ref":"828"}},{"type":"Feature","geometry":{"type":"Point","coordinates":[72.9879079,19.2334233]},"properties":{"name":"Sandoz Baug","position":5,"ref":"829"}},{"type":"Feature","geometry":{"type":"Point","coordinates":[72.9860836,19.2309076]},"properties":{"name":"Bayer Main Gate","position":6,"ref":"830"}},{"type":"Feature","geometry":{"type":"Point","coordinates":[72.9844081,19.229555]},"properties":{"name":"Wellman Company","position":7,"ref":"831"}},{"type":"Feature","geometry":{"type":"Point","coordinates":[72.9823208,19.2282064]},"properties":{"name":"Kavyadhara / Siddheshwar Garden","position":8,"ref":"832"}},{"type":"Feature","geometry":{"type":"Point","coordinates":[72.9805674,19.2271535]},"properties":{"name":"Dhokali Naka","position":9,"ref":"833"}},{"type":"Feature","geometry":{"type":"Point","coordinates":[72.9808683,19.2255443]},"properties":{"name":"Shruti Park","position":10,"ref":"834"}},{"type":"Feature","geometry":{"type":"Point","coordinates":[72.9822868,19.223346]},"properties":{"name":"Highland Park","position":11,"ref":"835"}},{"type":"Feature","geometry":{"type":"Point","coordinates":[72.985042,19.218969]},"properties":{"name":"Yashaswi Nagar Pipeline","position":12,"ref":"836"}},{"type":"Feature","geometry":{"type":"Point","coordinates":[72.9835528,19.218308]},"properties":{"name":"Yashaswi Nagar","position":13,"ref":"837"}},{"type":"Feature","geometry":{"type":"Point","coordinates":[72.9810811,19.2177337]},"properties":{"name":"Chhabhaiya Park","position":14,"ref":"838"}},{"type":"Feature","geometry":{"type":"Point","coordinates":[72.9798817,19.2175405]},"properties":{"name":"Kapurbawdi","position":15,"ref":"839"}},{"type":"Feature","geometry":{"type":"Point","coordinates":[72.9781397,19.2157373]},"properties":{"name":"Ashapura Mandir","position":16,"ref":"840"}},{"type":"Feature","geometry":{"type":"Point","coordinates":[72.9779989,19.2143134]},"properties":{"name":"Majiwada Naka","position":17,"ref":"841"}},{"type":"Feature","geometry":{"type":"Point","coordinates":[72.9772765,19.2105716]},"properties":{"name":"Muktai Nagar","position":18,"ref":"842"}},{"type":"Feature","geometry":{"type":"Point","coordinates":[72.9771397,19.2088805]},"properties":{"name":"Gokul Nagar","position":19,"ref":"843"}},{"type":"Feature","geometry":{"type":"Point","coordinates":[72.9774909,19.2071088]},"properties":{"name":"Ambika Yoga Kutir","position":20,"ref":"844"}},{"type":"Feature","geometry":{"type":"Point","coordinates":[72.9781939,19.2046638]},"properties":{"name":"Abhiruchi","position":21,"ref":"845"}},{"type":"Feature","geometry":{"type":"Point","coordinates":[72.9795659,19.2011551]},"properties":{"name":"Police Line","position":22,"ref":"846"}},{"type":"Feature","geometry":{"type":"Point","coordinates":[72.9799795,19.1979212]},"properties":{"name":"Central Maidan","position":23,"ref":"847"}},{"type":"Feature","geometry":{"type":"Point","coordinates":[72.9785326,19.1970448]},"properties":{"name":"Court Naka","position":24,"ref":"848"}},{"type":"Feature","geometry":{"type":"Point","coordinates":[72.9778121,19.1940818]},"properties":{"name":"Jambhali Naka","position":25,"ref":"849"}},{"type":"Feature","geometry":{"type":"Point","coordinates":[72.9769144,19.1905192]},"properties":{"name":"Prabhat Cinema","position":26,"ref":"850"}},{"type":"Feature","geometry":{"type":"Point","coordinates":[72.976106,19.186713]},"properties":{"name":"Thane Station West SATIS","position":27,"ref":"851"}}]}