{"type":"FeatureCollection","features":[{"type":"Feature","geometry":{"type":"Point","coordinates":[72.976106,19.186713]},"properties":{"name":"Thane Station West SATIS","position":0,"ref":"1792"}},{"type":"Feature","geometry":{"type":"Point","coordinates":[72.9767111,19.1937988]},"properties":{"name":"Talao Pali / Jambhali Naka","position":1,"ref":"1793"}},{"type":"Feature","geometry":{"type":"Point","coordinates":[72.97077667,19.197025]},"properties":{"name":"Debonair Society","position":2,"ref":"1794"}},{"type":"Feature","geometry":{"type":"Point","coordinates":[72.9691018,19.1972601]},"properties":{"name":"Sarovar Darshan / Mahapalika Bhavan","position":3,"ref":"1795"}},{"type":"Feature","geometry":{"type":"Point","coordinates":[72.9665001,19.1981983]},"properties":{"name":"Namdev Wadi","position":4,"ref":"1796"}},{"type":"Feature","geometry":{"type":"Point","coordinates":[72.9648541,19.1989775]},"properties":{"name":"Nitin Company / Bata Showroom","position":5,"ref":"1797"}},{"type":"Feature","geometry":{"type":"Point","coordinates":[72.9644358,19.1958976]},"properties":{"name":"Gurukul Society","position":6,"ref":"1798"}}]}