{"type":"FeatureCollection","features":[{"type":"Feature","geometry":{"type":"Point","coordinates":[72.9565986,19.1629088]},"properties":{"name":"Kelkar College","position":0,"ref":"2623"}},{"type":"Feature","geometry":{"type":"Point","coordinates":[72.9617801,19.1735074]},"properties":{"name":"Gavanpada","position":1,"ref":"2624"}},{"type":"Feature","geometry":{"type":"Point","coordinates":[72.9580283,19.1738434]},"properties":{"name":"Mulund Station (W)","position":2,"ref":"2625"}},{"type":"Feature","geometry":{"type":"Point","coordinates":[72.9505623,19.1786126]},"properties":{"name":"Gyan Sarita Sada","position":3,"ref":"2626"}},{"type":"Feature","geometry":{"type":"Point","coordinates":[72.945282,19.1792013]},"properties":{"name":"Kamagar Hospital Mulund","position":4,"ref":"2627"}},{"type":"Feature","geometry":{"type":"Point","coordinates":[72.9483388,19.1833227]},"properties":{"name":"Santoshi Mata Mandir","position":5,"ref":"2628"}},{"type":"Feature","geometry":{"type":"Point","coordinates":[72.9538687,19.1843026]},"properties":{"name":"Mulund Check Naka","position":6,"ref":"2629"}},{"type":"Feature","geometry":{"type":"Point","coordinates":[72.9566814,19.1858247]},"properties":{"name":"Mulund Check Naka (Narpoli)","position":7,"ref":"2630"}},{"type":"Feature","geometry":{"type":"Point","coordinates":[72.9581617,19.1859712]},"properties":{"name":"Kashish Park","position":8,"ref":"2631"}},{"type":"Feature","geometry":{"type":"Point","coordinates":[72.9610798,19.1869124]},"properties":{"name":"Johnson Company","position":9,"ref":"2632"}},{"type":"Feature","geometry":{"type":"Point","coordinates":[72.9625635,19.1879274]},"properties":{"name":"Teen Hath Naka","position":10,"ref":"2633"}},{"type":"Feature","geometry":{"type":"Point","coordinates":[72.9649304,19.1880117]},"properties":{"name":"Income Tax Office","position":11,"ref":"2634"}},{"type":"Feature","geometry":{"type":"Point","coordinates":[72.9669844,19.1874507]},"properties":{"name":"Malhar Cinema","position":12,"ref":"2635"}},{"type":"Feature","geometry":{"type":"Point","coordinates":[72.9675387,19.1886663]},"properties":{"name":"Shahu Maharaj Market","position":13,"ref":"2636"}},{"type":"Feature","geometry":{"type":"Point","coordinates":[72.9677019,19.1904622]},"properties":{"name":"Hari Niwas","position":14,"ref":"2637"}},{"type":"Feature","geometry":{"type":"Point","coordinates":[72.9704407,19.1943875]},"properties":{"name":"Vandana Cinema","position":15,"ref":"2638"}},{"type":"Feature","geometry":{"type":"Point","coordinates":[72.9717165,19.1984534]},"properties":{"name":"Makhamali Talav","position":16,"ref":"2639"}},{"type":"Feature","geometry":{"type":"Point","coordinates":[72.9732944,19.2007652]},"properties":{"name":"Khopat S.T. Workshop","position":17,"ref":"2640"}},{"type":"Feature","geometry":{"type":"Point","coordinates":[72.9760037,19.2025532]},"properties":{"name":"Bramhala Talav / Manorpada","position":18,"ref":"2641"}},{"type":"Feature","geometry":{"type":"Point","coordinates":[72.9771686,19.2040666]},"properties":{"name":"Kolbad","position":19,"ref":"2642"}},{"type":"Feature","geometry":{"type":"Point","coordinates":[72.9779881,19.2051835]},"properties":{"name":"Desai Bangla","position":20,"ref":"2643"}},{"type":"Feature","geometry":{"type":"Point","coordinates":[72.9801308,19.2061429]},"properties":{"name":"Shrirang Society","position":21,"ref":"2644"}},{"type":"Feature","geometry":{"type":"Point","coordinates":[72.9821983,19.2060224]},"properties":{"name":"Rabodi","position":22,"ref":"2645"}},{"type":"Feature","geometry":{"type":"Point","coordinates":[72.9827489,19.2084111]},"properties":{"name":"Vrindavan Society","position":23,"ref":"2646"}}]}