{"type":"FeatureCollection","features":[{"type":"Feature","geometry":{"type":"Point","coordinates":[72.9688165,19.2752223]},"properties":{"name":"Kasarvadavali","position":0,"ref":"3810"}},{"type":"Feature","geometry":{"type":"Point","coordinates":[72.9668684,19.266975]},"properties":{"name":"Sainath Nagar","position":1,"ref":"3811"}},{"type":"Feature","geometry":{"type":"Point","coordinates":[72.9685211,19.2628623]},"properties":{"name":"Muchhala College","position":2,"ref":"2119"}},{"type":"Feature","geometry":{"type":"Point","coordinates":[72.9699373,19.2594181]},"properties":{"name":"Batata Company / Vijay Garden / Dmart","position":3,"ref":"3812"}},{"type":"Feature","geometry":{"type":"Point","coordinates":[72.9708575,19.2572804]},"properties":{"name":"Panchamrit","position":4,"ref":"3813"}},{"type":"Feature","geometry":{"type":"Point","coordinates":[72.9725545,19.2529052]},"properties":{"name":"Wagh Bill Naka","position":5,"ref":"3814"}},{"type":"Feature","geometry":{"type":"Point","coordinates":[72.9733897,19.2510258]},"properties":{"name":"Dongri Pada","position":6,"ref":"3815"}},{"type":"Feature","geometry":{"type":"Point","coordinates":[72.9755664,19.2475738]},"properties":{"name":"Patli Pada","position":7,"ref":"3816"}},{"type":"Feature","geometry":{"type":"Point","coordinates":[72.9758005,19.2393253]},"properties":{"name":"Mulla Bagh","position":8,"ref":"3817"}},{"type":"Feature","geometry":{"type":"Point","coordinates":[72.976287,19.2352844]},"properties":{"name":"Manpada","position":9,"ref":"3818"}},{"type":"Feature","geometry":{"type":"Point","coordinates":[72.9768602,19.2301962]},"properties":{"name":"Lokim Company / R Mall","position":10,"ref":"3819"}},{"type":"Feature","geometry":{"type":"Point","coordinates":[72.9776164,19.2239242]},"properties":{"name":"Tattvagyan Vidyapeeth","position":11,"ref":"3820"}},{"type":"Feature","geometry":{"type":"Point","coordinates":[72.9779961,19.2208126]},"properties":{"name":"Kapurbawdi","position":12,"ref":"3821"}},{"type":"Feature","geometry":{"type":"Point","coordinates":[72.9779938,19.2143161]},"properties":{"name":"Majiwada","position":13,"ref":"3822"}},{"type":"Feature","geometry":{"type":"Point","coordinates":[72.9733479,19.2087192]},"properties":{"name":"Jupiter Hospital","position":14,"ref":"3823"}},{"type":"Feature","geometry":{"type":"Point","coordinates":[72.9687126,19.2040498]},"properties":{"name":"Cadbury Juction","position":15,"ref":"3824"}},{"type":"Feature","geometry":{"type":"Point","coordinates":[72.9637039,19.1993675]},"properties":{"name":"Nitin Company","position":16,"ref":"3825"}},{"type":"Feature","geometry":{"type":"Point","coordinates":[72.9626152,19.1956094]},"properties":{"name":"Louiswadi","position":17,"ref":"3826"}},{"type":"Feature","geometry":{"type":"Point","coordinates":[72.9640902,19.1876334]},"properties":{"name":"Teen Hath Naka","position":18,"ref":"3827"}},{"type":"Feature","geometry":{"type":"Point","coordinates":[72.9652713,19.1842695]},"properties":{"name":"Gynan Sadhana College","position":19,"ref":"3828"}},{"type":"Feature","geometry":{"type":"Point","coordinates":[72.9646077,19.1654703]},"properties":{"name":"Mithagar","position":20,"ref":"3829"}},{"type":"Feature","geometry":{"type":"Point","coordinates":[72.9566699,19.1537416]},"properties":{"name":"Bhandup Pumping Centre","position":21,"ref":"3830"}},{"type":"Feature","geometry":{"type":"Point","coordinates":[72.9505538,19.1443679]},"properties":{"name":"Bhandup Gaon","position":22,"ref":"3831"}},{"type":"Feature","geometry":{"type":"Point","coordinates":[72.9417483,19.1299568]},"properties":{"name":"Kanjur Marg Village","position":23,"ref":"3832"}},{"type":"Feature","geometry":{"type":"Point","coordinates":[72.9379154,19.1241094]},"properties":{"name":"Jogeshwari Vikroli Link Road (JVLR)","position":24,"ref":"3833"}},{"type":"Feature","geometry":{"type":"Point","coordinates":[72.9320298,19.1249318]},"properties":{"name":"Tagor Nagar","position":25,"ref":"3834"}},{"type":"Feature","geometry":{"type":"Point","coordinates":[72.9257136,19.1249754]},"properties":{"name":"Gandhi Nagar","position":26,"ref":"3835"}},{"type":"Feature","geometry":{"type":"Point","coordinates":[72.9190389,19.1273903]},"properties":{"name":"I.I.T. Market","position":27,"ref":"3836"}},{"type":"Feature","geometry":{"type":"Point","coordinates":[72.9169334,19.1253223]},"properties":{"name":"I.I.T. Main Gate","position":28,"ref":"3837"}},{"type":"Feature","geometry":{"type":"Point","coordinates":[72.9128171,19.1238007]},"properties":{"name":"Powai Plaza","position":29,"ref":"3838"}},{"type":"Feature","geometry":{"type":"Point","coordinates":[72.9097951,19.1237219]},"properties":{"name":"Panchkutir / Ganesh Mandir","position":30,"ref":"3839"}},{"type":"Feature","geometry":{"type":"Point","coordinates":[72.9065613,19.1202008]},"properties":{"name":"Hiranandani","position":31,"ref":"3840"}},{"type":"Feature","geometry":{"type":"Point","coordinates":[72.9038236,19.1191924]},"properties":{"name":"Powai Vihar Sankul","position":32,"ref":"3841"}},{"type":"Feature","geometry":{"type":"Point","coordinates":[72.8998554,19.1199414]},"properties":{"name":"Powai Police Station / Ram Ashram","position":33,"ref":"3842"}},{"type":"Feature","geometry":{"type":"Point","coordinates":[72.8981621,19.1228934]},"properties":{"name":"Shipping Corporation","position":34,"ref":"3843"}},{"type":"Feature","geometry":{"type":"Point","coordinates":[72.8900168,19.1263256]},"properties":{"name":"Milind Nagar","position":35,"ref":"3844"}},{"type":"Feature","geometry":{"type":"Point","coordinates":[72.8873134,19.1284035]},"properties":{"name":"I.E.S. High School","position":36,"ref":"3845"}},{"type":"Feature","geometry":{"type":"Point","coordinates":[72.8815303,19.1292903]},"properties":{"name":"Reliance Energy Training Center","position":37,"ref":"3846"}},{"type":"Feature","geometry":{"type":"Point","coordinates":[72.8787389,19.1295534]},"properties":{"name":"Seepz Gaon","position":38,"ref":"3847"}},{"type":"Feature","geometry":{"type":"Point","coordinates":[72.8766153,19.1299539]},"properties":{"name":"Seepz","position":39,"ref":"3848"}},{"type":"Feature","geometry":{"type":"Point","coordinates":[72.8706017,19.1209247]},"properties":{"name":"Orkay Mill","position":40,"ref":"3849"}},{"type":"Feature","geometry":{"type":"Point","coordinates":[72.8706006,19.1205368]},"properties":{"name":"Samrudhi Venture Park Tunga","position":41,"ref":"3850"}},{"type":"Feature","geometry":{"type":"Point","coordinates":[72.870269,19.1187739]},"properties":{"name":"Gautam Nagar","position":42,"ref":"3851"}},{"type":"Feature","geometry":{"type":"Point","coordinates":[72.8652881,19.1183149]},"properties":{"name":"Marol Bus Depot","position":43,"ref":"3766"}},{"type":"Feature","geometry":{"type":"Point","coordinates":[72.8678725,19.1179693]},"properties":{"name":"M.I.D.C Chakala","position":44,"ref":"3852"}},{"type":"Feature","geometry":{"type":"Point","coordinates":[72.8701875,19.1186983]},"properties":{"name":"Akruti Centre MIDC","position":45,"ref":"3765"}},{"type":"Feature","geometry":{"type":"Point","coordinates":[72.861287,19.1158567]},"properties":{"name":"Chakala","position":46,"ref":"3853"}},{"type":"Feature","geometry":{"type":"Point","coordinates":[72.8688327,19.111498]},"properties":{"name":"J B Nagar","position":47,"ref":"3854"}},{"type":"Feature","geometry":{"type":"Point","coordinates":[72.8481895,19.1192184]},"properties":{"name":"Andheri Station (E) Agarkar Chowk","position":48,"ref":"3762"}}]}