{"type":"FeatureCollection","features":[{"type":"Feature","geometry":{"type":"Point","coordinates":[72.9459009,19.2015925]},"properties":{"name":"Wagle Agar","position":0,"ref":"2534"}},{"type":"Feature","geometry":{"type":"Point","coordinates":[72.9491911,19.2007714]},"properties":{"name":"Sathe Nagar","position":1,"ref":"2535"}},{"type":"Feature","geometry":{"type":"Point","coordinates":[72.9492237,19.1988516]},"properties":{"name":"Passport Office","position":2,"ref":"2536"}},{"type":"Feature","geometry":{"type":"Point","coordinates":[72.9430932,19.1955294]},"properties":{"name":"ITI Thane","position":3,"ref":"2537"}},{"type":"Feature","geometry":{"type":"Point","coordinates":[72.9453411,19.1952359]},"properties":{"name":"Road No 27","position":4,"ref":"2538"}},{"type":"Feature","geometry":{"type":"Point","coordinates":[72.9497658,19.1947265]},"properties":{"name":"Road No 22","position":5,"ref":"2539"}},{"type":"Feature","geometry":{"type":"Point","coordinates":[72.9537724,19.1937063]},"properties":{"name":"Road No 16","position":6,"ref":"2540"}},{"type":"Feature","geometry":{"type":"Point","coordinates":[72.9554525,19.1911635]},"properties":{"name":"M.I.D.C","position":7,"ref":"2541"}},{"type":"Feature","geometry":{"type":"Point","coordinates":[72.9553859,19.1877049]},"properties":{"name":"Automatic Company","position":8,"ref":"2542"}},{"type":"Feature","geometry":{"type":"Point","coordinates":[72.9566804,19.1858524]},"properties":{"name":"Mulund Check Naka","position":9,"ref":"2543"}},{"type":"Feature","geometry":{"type":"Point","coordinates":[72.9543665,19.1842828]},"properties":{"name":"Mulund","position":10,"ref":"2544"}},{"type":"Feature","geometry":{"type":"Point","coordinates":[72.9502494,19.1833434]},"properties":{"name":"Santoshi Mata Temple","position":11,"ref":"2545"}},{"type":"Feature","geometry":{"type":"Point","coordinates":[72.9457091,19.179617]},"properties":{"name":"Kamgar Hospital","position":12,"ref":"2546"}},{"type":"Feature","geometry":{"type":"Point","coordinates":[72.9505489,19.1786076]},"properties":{"name":"Gyan Sarita","position":13,"ref":"2547"}},{"type":"Feature","geometry":{"type":"Point","coordinates":[72.9527894,19.1754957]},"properties":{"name":"Pach Rasta Devidayal","position":14,"ref":"2548"}},{"type":"Feature","geometry":{"type":"Point","coordinates":[72.9580466,19.1738399]},"properties":{"name":"Mulund Station (W)","position":15,"ref":"2549"}}]}