{"type":"FeatureCollection","features":[{"type":"Feature","geometry":{"type":"Point","coordinates":[72.976106,19.186713]},"properties":{"name":"Thane Station West SATIS","position":0,"ref":"2291"}},{"type":"Feature","geometry":{"type":"Point","coordinates":[72.9717267,19.1876068]},"properties":{"name":"A.K. Joshi Vidyalaya","position":1,"ref":"2292"}},{"type":"Feature","geometry":{"type":"Point","coordinates":[72.9675119,19.188317]},"properties":{"name":"Naupada","position":2,"ref":"2293"}},{"type":"Feature","geometry":{"type":"Point","coordinates":[72.9676911,19.1904631]},"properties":{"name":"Hari Niwas","position":3,"ref":"2294"}},{"type":"Feature","geometry":{"type":"Point","coordinates":[72.9683384,19.1927356]},"properties":{"name":"Aradhana Cinema","position":4,"ref":"2295"}},{"type":"Feature","geometry":{"type":"Point","coordinates":[72.9674354,19.193362]},"properties":{"name":"Pradeep Society","position":5,"ref":"2296"}},{"type":"Feature","geometry":{"type":"Point","coordinates":[72.964496,19.1957706]},"properties":{"name":"Gurukul Society","position":6,"ref":"2297"}},{"type":"Feature","geometry":{"type":"Point","coordinates":[72.9634121,19.1988489]},"properties":{"name":"Nitin Company","position":7,"ref":"2298"}},{"type":"Feature","geometry":{"type":"Point","coordinates":[72.9626162,19.1956101]},"properties":{"name":"Louiswadi","position":8,"ref":"2299"}},{"type":"Feature","geometry":{"type":"Point","coordinates":[72.9604217,19.1974456]},"properties":{"name":"Kajuwadi","position":9,"ref":"2300"}}]}