{"type":"FeatureCollection","features":[{"type":"Feature","geometry":{"type":"Point","coordinates":[72.976106,19.186713]},"properties":{"name":"Thane Station West SATIS","position":0,"ref":"424"}},{"type":"Feature","geometry":{"type":"Point","coordinates":[72.9767085,19.1938025]},"properties":{"name":"Talao Pali","position":1,"ref":"425"}},{"type":"Feature","geometry":{"type":"Point","coordinates":[72.9772425,19.1971009]},"properties":{"name":"Tembhi Naka","position":2,"ref":"426"}},{"type":"Feature","geometry":{"type":"Point","coordinates":[72.9773678,19.1991935]},"properties":{"name":"Civil Hospital","position":3,"ref":"427"}},{"type":"Feature","geometry":{"type":"Point","coordinates":[72.9777522,19.2017957]},"properties":{"name":"School No 7","position":4,"ref":"428"}},{"type":"Feature","geometry":{"type":"Point","coordinates":[72.9780013,19.2029434]},"properties":{"name":"Uthalsar","position":5,"ref":"429"}},{"type":"Feature","geometry":{"type":"Point","coordinates":[72.9771983,19.2073122]},"properties":{"name":"Ambika Yoga Kutir","position":6,"ref":"430"}},{"type":"Feature","geometry":{"type":"Point","coordinates":[72.9770173,19.2093525]},"properties":{"name":"Gokul Nagar","position":7,"ref":"431"}},{"type":"Feature","geometry":{"type":"Point","coordinates":[72.977127,19.2108309]},"properties":{"name":"Muktai Nagar","position":8,"ref":"432"}},{"type":"Feature","geometry":{"type":"Point","coordinates":[72.9763251,19.2145007]},"properties":{"name":"Oswal Park","position":9,"ref":"433"}},{"type":"Feature","geometry":{"type":"Point","coordinates":[72.9740084,19.2162588]},"properties":{"name":"Subhash Nagar","position":10,"ref":"434"}},{"type":"Feature","geometry":{"type":"Point","coordinates":[72.9718864,19.2169636]},"properties":{"name":"Voltas Gate","position":11,"ref":"435"}},{"type":"Feature","geometry":{"type":"Point","coordinates":[72.9703687,19.2180518]},"properties":{"name":"Gandhi Nagar","position":12,"ref":"436"}},{"type":"Feature","geometry":{"type":"Point","coordinates":[72.970147,19.2202499]},"properties":{"name":"Jawahar Nagar","position":13,"ref":"437"}},{"type":"Feature","geometry":{"type":"Point","coordinates":[72.9698065,19.2218628]},"properties":{"name":"Vasant Vihar","position":14,"ref":"438"}},{"type":"Feature","geometry":{"type":"Point","coordinates":[72.9697861,19.2232401]},"properties":{"name":"Vivekanand Nagar","position":15,"ref":"439"}},{"type":"Feature","geometry":{"type":"Point","coordinates":[72.9696888,19.2246611]},"properties":{"name":"Lok Puram","position":16,"ref":"440"}},{"type":"Feature","geometry":{"type":"Point","coordinates":[72.9695482,19.2279329]},"properties":{"name":"Edenwood","position":17,"ref":"441"}},{"type":"Feature","geometry":{"type":"Point","coordinates":[72.9670301,19.2285553]},"properties":{"name":"Vasant Vihar Phata","position":18,"ref":"442"}},{"type":"Feature","geometry":{"type":"Point","coordinates":[72.9661066,19.2288757]},"properties":{"name":"Pawar Nagar","position":19,"ref":"443"}}]}